,FACILITY_ID,FACILITY_NAME,ADDRESS1,ADDRESS2,CITY,STATE,STATE_NAME,ZIP,COUNTY_FIPS,COUNTY,LATITUDE,LONGITUDE,YEAR,CEMS_USED,PARENT_COMPANY,ADDITIONAL_NAICS_CODES,COGENERATION_UNIT_EMISS_IND,PLANT_CODE_INDICATOR,PRIMARY_NAICS_CODE,SECONDARY_NAICS_CODE,EPA_VERIFIED
0,1000001,PSE Ferndale Generating Station,5105 LAKE TERRELL ROAD,,FERNDALE,WA,WASHINGTON,98248,53073,WHATCOM COUNTY,48.828707,-122.685533,2012,Y,PUGET SOUND ENERGY (100%);,,N,,221112,,
1,1000002,Ardagh Glass Inc.,524 E. CENTER STREET,,DUNKIRK,IN,INDIANA,47336,18075,JAY,40.371053,-85.198134,2012,,SAINT-GOBAIN CONTAINERS INC (100%);,,N,,327213,,
2,1000003,Ardagh Glass Inc.,620 Facet Road,,Henderson,NC,NORTH CAROLINA,27537,37181,VANCE,36.291066,-78.391883,2012,,SAINT-GOBAIN CONTAINERS INC (100%);,,N,,327213,,
3,1000004,Ardagh Glass Inc.,1200 NORTH LOGAN STREET,,LINCOLN,IL,ILLINOIS,62656,17107,LOGAN COUNTY,40.15764,-89.3538,2012,,SAINT-GOBAIN CONTAINERS INC (100%);,,N,,327213,,
4,1000005,Ardagh Glass Inc.,24441 AVENUE 12 & ROAD 24 1/2,,MADERA,CA,CALIFORNIA,93637,06039,MADERA COUNTY,36.92636,-120.10413,2012,,SAINT-GOBAIN CONTAINERS INC (100%);,,N,,327213,,
5,1000006,Ardagh Glass Inc.,1 NATIONAL STREET,,MILFORD,MA,MASSACHUSETTS,01757,25027,WORCESTER,42.127451,-71.513599,2012,,SAINT-GOBAIN CONTAINERS INC (100%);,,N,,327213,,
6,1000007,AMERICAN GYPSUM - BERNALILLO (WALLBOARD) PLANT,1000 N HILL RD,,BERNALILLO,NM,NEW MEXICO,87004,35043,SANDOVAL,35.329352,-106.525777,2012,,EAGLE MATERIALS INC (100%);,,N,,327420,,
7,1000010,SANTA ROSA CENTRAL LANDFILL,6337 DELISA RD.,,MILTON,FL,FLORIDA,32583,12113,SANTA ROSA,30.5804,-87.0621,2012,,SANTA ROSA BOARD OF COUNTY COMMISSIONERS (100%);,,N,,562212,,
8,1000011,Central Hudson Gas and Electric Corporation,284 South Avenue,,Poughkeepsie,NY,NEW YORK,12601,36027,DUTCHESS,41.690648,-73.931605,2012,,CH ENERGY GROUP INC (100%);,221210,NA,,221122,221121,
9,1000015,TYSON FOODS INCORPORATED,704 FACTORY STREET,,WILKESBORO,NC,NORTH CAROLINA,28697,37193,WILKES COUNTY,36.143889,-81.163333,2012,,"TYSON FOODS, INC (100%);",,NA,,311615,,
10,1000016,TYSON FARMS INCORPORATED HARMONY,501 SHEFFIELD ROAD,,HARMONY,NC,NORTH CAROLINA,28634,37097,IREDELL COUNTY,35.95458,-80.72108,2012,,"TYSON FOODS, INC (100%);",,N,,311613,,
11,1000017,BASF CORPORATION,3150 HWY JJ,,PALMYRA,MO,MISSOURI,63461,29127,MARION,39.834118,-91.436791,2012,,BASF CORPORATION (100%);,325320,N,,325320,,
12,1000019,WESTERN SUGAR COMPANY,2100 E. OVERLAND DR.,,SCOTTSBLUFF,NE,NEBRASKA,69361,31157,SCOTTS BLUFF COUNTY,41.859603,-103.637032,2012,,WESTERN SUGAR COOPERATIVE (100%);,,N,,311313,,
13,1000020,Ardagh Glass Inc.,ONE GLASS PLACE,,PORT ALLEGANY,PA,PENNSYLVANIA,16743,42083,MCKEAN COUNTY,41.81112,-78.28314,2012,,SAINT-GOBAIN CONTAINERS INC (100%);,,N,,327213,,
14,1000021,Ardagh Glass Inc.,4241 HIGHWAY 563,,SIMSBORO,LA,LOUISIANA,71275,22061,LINCOLN PARISH,32.543572,-92.766871,2012,,SAINT-GOBAIN CONTAINERS INC (100%);,,N,,327213,,
15,1000022,ISP TECHNOLOGIES TEXAS CITY PLANT,4501 ATTWATER AVENUE,,TEXAS CITY,TX,TEXAS,77590,48167,GALVESTON COUNTY,29.42807,-94.995369,2012,,ASHLAND INC (100%);,,N,,325199,,
16,1000023,Ardagh Glass Inc.,1000 NORTH MISSION STREET,,SAPULPA,OK,OKLAHOMA,74066,40037,CREEK COUNTY,36.009924,-96.099233,2012,,SAINT-GOBAIN CONTAINERS INC (100%);,,N,,327213,,
17,1000024,Ardagh Glass Inc.,5801 EAST MARGINAL WAY SOUTH,,SEATTLE,WA,WASHINGTON,98134,53033,KING COUNTY,47.55242,-122.33739,2012,,SAINT-GOBAIN CONTAINERS INC (100%);,,N,,327213,,
18,1000025,PLACID REFINING CO LLC - PORT ALLEN REFINERY,"1940 LA HWY 1, NORTH",,PORT ALLEN,LA,LOUISIANA,70767,22121,WEST BATON ROUGE,30.475803,-91.208107,2012,,PLACID REFINING CO LLC (100%);,,Y,,324110,,
19,1000026,Ardagh Glass Inc.,2201 FIRESTONE PARKWAY,,WILSON,NC,NORTH CAROLINA,27893,37195,WILSON,35.75387,-77.88017,2012,,SAINT-GOBAIN CONTAINERS INC (100%);,,N,,327213,,
20,1000027,The Children\s Hospital of Philadelphia,34th Street and Civic Center Boulevard,,Philadelphia,PA,PENNSYLVANIA,19104,42101,PHILADELPHIA,39.94776,-75.19391,2012,,THE CHILDREN'S HOSPITAL OF PHILADELPHIA (100%);,,N,,622110,,
21,1000028,Ardagh Glass Inc.,1500 Ardagh Group Drive,,PEVELY,MO,MISSOURI,63070,29099,JEFFERSON,38.29372,-90.39969,2012,,SAINT-GOBAIN CONTAINERS INC (100%);,,N,,327213,,
22,1000029,NUCOR STEEL SEATTLE INC,2424 SOUTHWEST ANDOVER STREET,,SEATTLE,WA,WASHINGTON,98106,53033,KING,47.569331,-122.367332,2012,,NUCOR CORPORATION (100%);,,N,,331111,,
23,1000030,US MAGNESIUM LLC,15 MILES NORTH OF EXIT OF I-80,,SALT LAKE CITY,UT,UTAH,84116,49045,TOOELE,40.914725,-112.719725,2012,,THE RENCO GROUP INC (100%);,,Y,,331419,,
24,1000031,Northwest Regional Landfill,19401 W. Deer Valley Rd,,Surprise,AZ,ARIZONA,85387,04013,MARICOPA COUNTY,33.67484,-112.47007,2012,,"WASTE MANAGEMENT, INC. (100%);",,N,,562212,,
25,1000032,KRATON POLYMERS U S LLC,2419 State Route 618,,BELPRE,OH,OHIO,45714,39167,WASHINGTON,39.281072,-81.637901,2012,,"KRATON POLYMERS U.S., LLC (100%);",325991,N,,325212,,
26,1000033,San Gabriel Cogeneration Facility,1507 Mount Vernon Ave.,,Pomona,CA,CALIFORNIA,91768,06037,LOS ANGELES,34.05845,-117.775114,2012,,"VERESEN, INC (100%);",,Y,,221112,,
27,1000034,ADM MILLING COMPANY,1935 EAST EUCLID AVENUE,,DES MOINES,IA,IOWA,50313,19153,POLK,41.626329,-93.583205,2012,,ARCHER DANIELS MIDLAND CO (100%);,,Y,,311222,311225,
28,1000035,ANDERSONS MARATHON ETHANOL LLC,5728 E SEBRING WARNER RD,,GREENVILLE,OH,OHIO,45331,39037,DARKE COUNTY,40.081111,-84.591667,2012,,"MARATHON RENEWABLE FUELS (50%);THE ANDERSONS, INC (50%);",,N,,325193,,
29,1000036,UNIVERSITY OF CINCINNATI,3000 Glendora Ave.,,CINCINNATI,OH,OHIO,45219,39061,HAMILTON COUNTY,39.13453,-84.50952,2012,,UNIVERSITY OF CINCINNATI (100%);,,Y,,611310,,
30,1000037,TYSON FRESH MEATS INC,28424 38th Avenue North,,Hillsdale,IL,ILLINOIS,61257,17161,ROCK ISLAND,41.554204,-90.22459,2012,,"TYSON FOODS, INC. (100%);",,N,,311611,,
31,1000038,TYSON FRESH MEATS,13983 DODD ROAD,,WALLULA,WA,WASHINGTON,99363,53071,WALLA WALLA,46.131256,-118.910823,2012,,"TYSON FOODS, INC (100%);",,N,,311611,,
32,1000039,Alstom Grid LLC,One Power Lane,,Charleroi,PA,PENNSYLVANIA,15022,42125,WASHINGTON,40.124713,-79.930463,2012,,ALSTOM INC (100%);,,N,,335313,,
33,1000040,"Tyson Fresh Meats, Inc.- Dakota City, NE",5200 Highway 35 & IBP Avenue,,DAKOTA CITY,NE,NEBRASKA,68731,31043,DAKOTA,42.425506,-96.416315,2012,,"TYSON FOODS, INC. (100%);","311613,316110",N,,311611,311612,
34,1000041,WISCONSIN PAPERBOARD CORP,1514 E THOMAS AVE,,MILWAUKEE,WI,WISCONSIN,53211,55079,MILWAUKEE COUNTY,43.06367,-87.89162,2012,,THE NEWARK GROUP INC (100%);,,N,,322130,,
35,1000043,PRAXAIR Texas City Hydrogen Complex,"1720 GRANT AVE, GATE 16",,TEXAS CITY,TX,TEXAS,77590,48167,GALVESTON COUNTY,29.365859,-94.936113,2012,,"PRAXAIR, INC. (100%);",,N,,325120,,
36,1000045,TYSON POULTRY INC.-SEDALIA,19571 WHITFIELD RD,,SEDALIA,MO,MISSOURI,65301,29159,PETTIS COUNTY,38.75087,-93.326088,2012,,"TYSON FOODS, INC (100%);",,N,,311615,,
37,1000046,BADLANDS SANITARY LANDFILL,31125 IRONWOOD AVENUE,,MORENO VALLEY,CA,CALIFORNIA,92555,06065,RIVERSIDE,33.752899,-116.055397,2012,,COUNTY OF RIVERSIDE (100%);,,N,,562212,,
38,1000047,PENOBSCOT ENERGY RECOVERY CO.,29 INDUSTRIAL WAY,,ORRINGTON,ME,MAINE,04474,23019,PENOBSCOT,44.738333,-68.825833,2012,,PERC HOLDINGS LLC (24.3%);SET PERC INVESTMENT LLC (52.7%);EQUITY CHARTER MUNICIPALITIES (23%);,,N,,562213,,
39,1000048,"ALLISON TRANSMISSION, Inc.",One Allison Way,,INDIANAPOLIS,IN,INDIANA,46222,18097,MARION,39.78039,-86.238893,2012,,"ALLISON TRANSMISSION, INC (100%);",,N,,336350,,
40,1000049,Lange,2900 LANGE ROAD,,RAPID CITY,SD,SOUTH DAKOTA,57702,46103,Pennington,44.1212,-103.2608,2012,,BLACK HILLS CORP (100%);,,NA,,221112,,
41,1000050,Wygen I,13151 HIGHWAY 51,,GILLETTE,WY,WYOMING,82718,56005,Campbell,44.2862,-105.3843,2012,Y,MUNICIPAL ENERGY AGENCY OF NEBRASKA (23.5%);BLACK HILLS CORP (76.5%);,,NA,,221112,,
42,1000051,"Mariposa Energy, LLC",4887 Bruns Road,,Byron,CA,CALIFORNIA,94514,06001,Alameda,37.7965,-121.6049,2012,,DIAMOND GENERATING CORP (100%);,,N,,221112,,
43,1000052,Mesquite Generating Station,37625 W ELLIOT RD,,ARLINGTON,AZ,ARIZONA,85322,04013,Maricopa,33.3451,-112.8638,2012,,SEMPRA U.S GAS & POWER (100%);,,N,,221112,,
44,1000053,TEXAS MEDICAL CENTER CENTRAL HEATING AND COOLING SERVICES CORPORATION,1615 BRAESWOOD,,HOUSTON,TX,TEXAS,77030,48201,HARRIS,29.703682,-95.396186,2012,,TEXAS MEDICAL CENTER CENTRAL HEATING & COOLING SERVICES CORP (100%);,221330,Y,,221310,,
45,1000054,City of Tallahassee Natural Gas Utility,2602 Jackson Bluff Road,,Tallahassee,FL,FLORIDA,32304,12073,LEON COUNTY,30.438696,-84.332473,2012,,CITY OF TALLAHASSEE (100%);,,N,,221210,,
46,1000056,SPECIALTY MINERALS,260 COLUMBIA STREET,,ADAMS,MA,MASSACHUSETTS,01220,25003,BERKSHIRE,42.6432,-73.1135,2012,,MINERALS TECHNOLOGIES INC (100%);,,N,,327410,,
47,1000057,Tri-Center Naniwa Energy,225 AMSTERDAM CT,,MCCARRAN,NV,NEVADA,89434,32029,Storey,39.5617,-119.5175,2012,,MORGAN STANLEY (100%);,,N,,221112,,
48,1000058,CalPeak Power - Vaca Dixon LLC,5157 QUINN ROAD,,VACAVILLE,CA,CALIFORNIA,95688,06095,Solano,38.3989,-121.9239,2012,,TYR ENERGY (20%);GSO SPECIAL SITUATION FUND LP (65.776%);STARWOOD ENERGY GROUP (14.224%);,,N,,221112,,
49,1000059,Tenaska Kiamichi Generating Station,4386 Old 69 Road,,KIOWA,OK,OKLAHOMA,74553,40121,Pittsburg,34.6831,-95.9349,2012,,"TENASKA ENERGY, INC. AND TENASKA ENERGY HOLDINGS, LLC (65%);TYR ENERGY, INC. AND CHUBU ELECTRIC POWER CO., INC. (35%);",,N,,221112,,
50,1000060,Limon Generating Station,48303 STATE ROAD 71,,LIMON,CO,COLORADO,80828,08073,Lincoln,39.2038,-103.7005,2012,,TRI-STATE GENERATION & TRANSMISSION (100%);,,N,,221112,,
51,1000061,Frank Knutson Station,13501 POWHATEN ROAD,,COMMERCE CITY,CO,COLORADO,80022,08001,Adams,39.9414,-104.6817,2012,,TRI-STATE GENERATION & TRANSMISSION (100%);,,N,,221112,,
52,1000062,MT JEWETT COMPLEX,149 Temple Drive,,KANE,PA,PENNSYLVANIA,16735,42083,MCKEAN,41.7,-78.48,2012,,TEMPLE-INLAND INC (100%);,,N,,321219,,
53,1000063,CHIEF ETHANOL FUELS INC,4225 E SOUTH ST,,HASTINGS,NE,NEBRASKA,68901,31001,ADAMS,40.585,-98.318889,2012,,CHIEF INDUSTRIES INC (100%);,,N,,325193,,
54,1000064,LONE STAR GAS LIQUIDS,19430 BEECH AVENUE,,SHAFTER,CA,CALIFORNIA,93263,06029,KERN,35.447778,-119.26,2012,,PLAINS LPG SERVICES (100%);,,N,,211112,,
55,1000065,CalPeak Power - Border LLC,2060 SANYO AVE,,SAN DIEGO,CA,CALIFORNIA,92154,06073,San Diego,32.5622,-116.9433,2012,,TYR ENERGY (20%);STARWOOD ENERGY GROUP (14.224%);GSO SPECIAL SITUATIONS FUND LP (65.776%);,,N,,221112,,
56,1000066,"INGOMAR PACKING COMPANY, LLC",9950 SOUTH INGOMAR GRADE,,LOS BANOS,CA,CALIFORNIA,93635,06047,MERCED COUNTY,37.07479,-120.877445,2012,,"INGOMAR PACKING CO, LLC (100%);",,N,,311421,,
57,1000067,Cuyamaca Energy Facility,200 NORTH JOHNSON AVE,,EL CAJON,CA,CALIFORNIA,92020,06073,San Diego,32.7971,-116.972,2012,,SEMPRA ENERGY INC (100%);,,N,,221112,,
58,1000068,Apex Generating Station,15555 APEX POWER PARKWAY,,LAS VEGAS,NV,NEVADA,89165,32003,Clark,36.4178,-114.9622,2012,Y,"LS POWER DEVELOPMENT, LLC (100%);",,N,,221112,,
59,1000069,"Wallingford Energy, LLC",115 JOHN ST,,WALLINGFORD,CT,CONNECTICUT,06460,09009,New Haven,41.4486,-72.8358,2012,,"LS POWER DEVELOPMENT, LLC (100%);",,N,,221112,,
60,1000070,High Desert Power Project,19000 PERIMETER RD/STE 102,,VICTORVILLE,CA,CALIFORNIA,92394,06071,San Bernardino,34.5953,-117.3647,2012,,"TPF GENCO CO-INVESTMENT FUND, LP (36.1%);TENASKA POWER FUND, L.P. (63.9%);",,N,,221112,,
61,1000071,York Energy Center,1055 Pikes Peak Road,,Delta,PA,PENNSYLVANIA,17314,42133,York,39.738,-76.3072,2012,,CALPINE CORP (100%);,,N,,221112,,
62,1000072,LOCKHEED MARTIN MISSILES & SPACE,1111 LOCKHEED MARTIN WAY,,SUNNYVALE,CA,CALIFORNIA,94089,06085,SANTA CLARA COUNTY,37.4166,-122.03599,2012,,LOCKHEED MARTIN CORP (100%);,,N,,336414,,
63,1000074,"Escondido Energy Center, LLC",1968 DON LEE PLACE,,ESCONDIDO,CA,CALIFORNIA,92029,06073,San Diego,33.1261,-117.1172,2012,Y,"ESCONDIDO ENERGY CENTER, LLC (100%);",,N,,221112,,
64,1000075,Chula Vista Energy Center,3497 MAIN ST CHULA VISTA,,CHULA VISTA,CA,CALIFORNIA,91911,06073,San Diego,32.5914,-117.0586,2012,Y,"CHULA VISTA ENERGY CENTER, LLC (100%);",,N,,221112,,
65,1000076,Klamath Energy LLC,4940 Hwy 97 South,,Klamath Falls,OR,OREGON,97603,41035,Klamath,42.1725,-121.8139,2012,,IBERDROLA RENEWABLES LLC (100%);,,N,,221112,,
66,1000077,"REPUBLIC STEEL, LACKAWANNA",S3049 LAKESHORE RD.,,BLASDELL,NY,NEW YORK,14219,36029,ERIE COUNTY,42.80243,-78.84638,2012,,REPUBLIC STEEL (100%);,,N,,331111,,
67,1000078,"Combined Locks Energy Center, LLC",540 PROSPECT ST,,COMBINED LOCKS,WI,WISCONSIN,54113,55087,Outagamie,44.2717,-88.3011,2012,,INTEGRYS ENERGY GROUP INC (100%);,,Y,,221112,,
68,1000079,SOUTHERN ILLINOIS UNIVERSITY,210 PHYSICAL PLANT DR,,CARBONDALE,IL,ILLINOIS,62901,17077,JACKSON,37.71083,-89.21754,2012,,SOUTHERN ILLINOIS UNIVERSITY (100%);,,Y,,611310,,
69,1000080,Creed Energy Center,6150 CREED ROAD,,SUISUN CITY,CA,CALIFORNIA,94585,06095,Solano,38.2419,-121.8551,2012,Y,CALPINE CORP (100%);,,N,,221112,,
70,1000081,Lambie Energy Center,5975 LAMBIE ROAD,,SUISUN CITY,CA,CALIFORNIA,94585,06095,Solano,38.2216,-121.8683,2012,Y,CALPINE CORP (100%);,,N,,221112,,
71,1000082,Goose Haven Energy Center,3853 GOOSE HAVEN ROAD,,SUISUN CITY,CA,CALIFORNIA,94585,06095,Solano,38.2271,-121.844,2012,Y,CALPINE CORP (100%);,,N,,221112,,
72,1000084,Seminole (136),STATE HIGHWAY 17,,PALATKA,FL,FLORIDA,32708,12107,Putnam,29.7333,-81.6339,2012,Y,"SEMINOLE ELECTRIC COOPERATIVE, INC (100%);",,N,,221112,,
73,1000085,Hartwell Energy Facility,415 SMITH MCGEE HWY,,HARTWELL,GA,GEORGIA,30643,13147,Hart,34.3387,-82.8207,2012,,OGLETHORPE POWER CORP (100%);,,N,,221112,,
74,1000086,Chemours Johnsonville Site,1 DUPONT ROAD,,NEW JOHNSONVILLE,TN,TENNESSEE,37134,47085,Humphreys,36.0419,-87.9753,2012,,E. I. DUPONT DE NEMOURS AND COMPANY (100%);,,N,,325131,,
75,1000087,NRG Energy Center Dover,1280 W NORTH ST,,DOVER,DE,DELAWARE,19904,10001,Kent,39.1467,-75.5461,2012,,NRG ENERGY INC (100%);,,N,,221112,,
76,1000088,GSA Central Heating,325 13th STREETS SOUTHWEST,,WASHINGTON,DC,DISTRICT OF COLUMBIA,20407,11001,DISTRICT OF COLUMBIA,38.8856,-77.0244,2012,,U.S. GOVERNMENT (%);,,N,,221330,,
77,1000089,Honeywell Resins & Chemicals LLC,2501 MARGARET STREET,,PHILADELPHIA,PA,PENNSYLVANIA,19137,42101,Philadelphia,40.0067,-75.0686,2012,,HONEYWELL RESINS & CHEMICALS LLC (100%);,,N,,325192,,
78,1000090,CITY OF GRAND PRAIRIE LANDFILL,1102 MACARTHUR BLVD,,GRAND PRAIRIE,TX,TEXAS,75050,48113,DALLAS,32.766437,-96.960108,2012,,CITY OF GRAND PRAIRIE (100%);,,N,,562212,,
79,1000091,Norwich,16 S GOLDEN ST,,NORWICH,CT,CONNECTICUT,06360,09011,New London,41.5269,-72.0631,2012,,"CITY OF NORWICH, CT (100%);",,N,,221210,,
80,1000092,Kneeland Station,165 KNEELAND ST,,BOSTON,MA,MASSACHUSETTS,02111,25025,Suffolk,42.35,-71.0583,2012,,"VEOLIA ENVIRONNEMENT NORTH AMERICA OPERATIONS, INC (100%);",,N,,221330,,
81,1000093,Momentive Performance Materials,260 HUDSON RIVER ROAD,,WATERFORD,NY,NEW YORK,12188,36091,Saratoga,42.8158,-73.6728,2012,,MOMENTIVE PERFORMANCE MATERIALS HOLDINGS LLC (100%);,,N,,325211,,
82,1000095,Red Oak Power LLC,832 RED OAK LANE,,SAYREVILLE,NJ,NEW JERSEY,08872,34023,Middlesex,40.4481,-74.3497,2012,,"RED OAK POWER HOLDINGS, LLC (100%);",,N,,221112,,
83,1000096,Southeast Chicago Energy Project,3141 EAST 96TH ST,,CHICAGO,IL,ILLINOIS,60617,17031,Cook,41.7181,-87.5449,2012,,EXELON CORP (100%);,,N,,221112,,
84,1000097,Gila River Power Station,1250 E. Watermelon Road,,Gila Bend,AZ,ARIZONA,85337,04013,Maricopa,32.9761,-112.694,2012,,"ENTEGRA POWER GROUP (50%);SUNDEVIL POWER HOLDINGS, LLC (50%);",,N,,221112,,
85,1000098,"Wise County Power Company, LLC",800 BOONS CREEK LANE,,POOLVILLE,TX,TEXAS,76487,48497,Wise,33.0583,-97.9103,2012,,"IPR-GDF SUEZ NORTH AMERICA, INC. (100%);",,N,,221112,,
86,1000099,Marathon Petroleum Company LP,400 S. Marathon Avenue,,Robinson,IL,ILLINOIS,62454,17033,Crawford,39,-87.7222,2012,,MARATHON PETROLEUM CO LP (100%);,,N,,324110,,
87,1000100,"New Harquahala Generating Company, LLC",2530 NORTH 491 AVE,,TONOPAH,AZ,ARIZONA,85354,04013,Maricopa,33.4759,-113.1133,2012,,MACHGEN LLC (100%);,,N,,221112,,
88,1000101,Athens Generating Company,9300 U S HIGHWAY 9W,,ATHENS,NY,NEW YORK,12015,36039,Greene,42.2728,-73.8492,2012,,MACH GEN (100%);,,N,,221112,,
89,1000102,Sunrise Power Company,12857 SUNRISE ROAD,,FELLOWS,CA,CALIFORNIA,93224,06029,Kern,35.2097,-119.585,2012,Y,CHEVRON GLOBAL POWER COMPANY (50%);EDISON MISSION ENERGY COMPANY (50%);,,N,,221112,,
90,1000103,TRUNK L COMPRESSOR STATION,,,Blanco,NM,NEW MEXICO,87412,35039,Rio Arriba,36.6432,-107.3553,2012,,"WILLIAMS FIELD SERVICES GROUP, LLC (100%);",,N,,213112,,
91,1000104,FORD MOTOR COMPANY - FORD OHIO ASSEMBLY PLANT,650 MILLER ROAD,,AVON LAKE,OH,OHIO,44012,39093,LORAIN COUNTY,41.48342,-82.06368,2012,,FORD MOTOR COMPANY (100%);,,N,,336111,,
92,1000105,Ardagh Glass Inc.,13850 COTTAGE GROVE AVENUE,,DOLTON,IL,ILLINOIS,60419,17031,COOK,41.64212,-87.59966,2012,,SAINT-GOBAIN CONTAINERS INC (100%);,,N,,327213,,
93,1000106,Waterford Plant,201 RIGHTEOUS RIDGE ROAD,,WATERFORD,OH,OHIO,45786,39167,Washington,39.5314,-81.7172,2012,,AMERICAN ELECTRIC POWER (100%);,,N,,221112,,
94,1000107,Osprey Energy Center,1651 W DERBY AVE,,AUBURNDALE,FL,FLORIDA,33823,12105,Polk,28.0525,-81.8083,2012,Y,CALPINE CORPORATION (100%);,,N,,221112,,
95,1000108,North 1st,NORTH 1ST & 47-79 RIVER ST,,BROOKLYN,NY,NEW YORK,11211,36047,Kings,40.7168,-73.9665,2012,,NEW YORK POWER AUTHORITY (100%);,,N,,221112,,
96,1000109,West Lorain,7101 WEST ERIE AVE,,LORAIN,OH,OHIO,44053,39093,Lorain,41.4297,-82.2633,2012,,"FIRSTENERGY GENERATION, LLC (100%);",,N,,221112,,
97,1000110,Midulla Generating Station,6697 COUNTY ROAD 663,,BOWLING GREEN,FL,FLORIDA,33834,12049,Hardee,27.6417,-81.9625,2012,,"SEMINOLE ELECTRIC COOPERATIVE, INC (100%);",,N,,221112,,
98,1000111,Vernon Boulevard,42 30 VERNON BLVD,,LONG ISLAND CITY,NY,NEW YORK,11427,36081,Queens,40.7539,-73.9506,2012,,NEW YORK POWEER AUTHORITY (100%);,,N,,221112,,
99,1000112,23rd and 3rd,730 3rd Avenue,,BROOKLYN,NY,NEW YORK,11232,36047,Kings,40.663,-74,2012,,NEW YORK POWER AUTHORITY (100%);,,N,,221112,,
100,1000113,Pouch Terminal,143 EDGEWATER STREET,,STATEN ISLAND,NY,NEW YORK,10305,36085,Richmond,40.6188,-74.069,2012,,NEW YORK POWER AUTHORITY (100%);,,N,,221112,,
101,1000114,Brentwood,PILGRIM STATE HOSPITAL/1650 ISLIP AVE,,BRENTWOOD,NY,NEW YORK,11717,36103,Suffolk,40.787,-73.2933,2012,,NEW YORK POWER AUTHORITY (100%);,,N,,221112,,
102,1000115,Osceola,5200 HOLOPAW ROAD,,SAINT CLOUD,FL,FLORIDA,34773,12097,Osceola,28.1289,-81.0978,2012,Y,NRG ENERGY INC (100%);,,N,,221112,,
103,1000116,Harlem River Yard,680 780E 132ND ST,,BRONX,NY,NEW YORK,10454,36005,Bronx,40.7989,-73.9147,2012,,NEW YORK POWER AUTHORITY (100%);,,N,,221112,,
104,1000117,"West Valley Power, LLC",5935 WEST 4700 SOUTH,,WEST VALLEY CITY,UT,UTAH,84170,49035,Salt Lake,40.6663,-112.031,2012,,EXELON CORP (100%);,,N,,221112,,
105,1000118,Solway Plant,7707 CENTERLINE ROAD NW,,SOLWAY,MN,MINNESOTA,56678,27007,Beltrami,47.5444,-95.1297,2012,,OTTER TAIL CORP (100%);,,N,,221112,,
106,1000119,Hoosier Energy Lawrence Co Station,1000 S OLD PALESTINE ROAD,,MITCHELL,IN,INDIANA,47446,18093,Lawrence,38.8003,-86.4511,2012,,"HOOSIER ENERGY REC, INC. (100%);",,N,,221112,,
107,1000120,Evander Andrews Power Complex,1862 NW Mashburn Road,,Mountain Home,ID,IDAHO,83647,16039,Elmore,43.1794,-115.7328,2012,,IDACORP (100%);,,N,,221112,,
108,1000121,Warren F. Sam Beasley Pwr Station,217 ARTISAN DRIVE,,SMYRNA,DE,DELAWARE,19977,10001,Kent,39.2798,-75.6246,2012,,DELAWARE MUNICIPAL ELECTRIC COORPORATION (100%);,,N,,221112,,
109,1000122,"Gilroy Energy Center, LLC for King City",51 DON BATES WAY,,KING CITY,CA,CALIFORNIA,93930,06053,Monterey,36.225,-121.1278,2012,Y,CALPINE CORP (100%);,,N,,221112,,
110,1000123,Yuba City Energy Center,875 NORTH WALTON AVE,,YUBA CITY,CA,CALIFORNIA,95993,06101,Sutter,39.1365,-121.6397,2012,Y,CALPINE CORP (100%);,,N,,221112,,
111,1000124,US Steel (Clairton Coke),400 STATE ST,,CLAIRTON,PA,PENNSYLVANIA,15025,42003,Allegheny,40.3097,-79.8819,2012,,UNITED STATES STEEL CORPORATION (100%);,,Y,,324199,,
112,1000125,Ackerman Combined Cycle,2510 PENSACOLA ROAD,,ACKERMAN,MS,MISSISSIPPI,39735,28019,Choctaw,33.3806,-89.2039,2012,Y,QUANTUM UTILITY GENERATION (100%);,,N,,221112,,
113,1000127,Bethlehem Power Plant,2254 APPLEBUTTER ROAD,,BETHLEHEM,PA,PENNSYLVANIA,18015,42095,Northampton,40.6175,-75.3147,2012,,CALPINE CORP (100%);,,N,,221112,,
114,1000128,Indigo Generation Facility,63500 19TH AVE,,NORTH PALM SPRINGS,CA,CALIFORNIA,92258,06065,Riverside,33.9114,-116.5533,2012,,DIAMOND GENERATING CORP (100%);,,N,,221112,,
115,1000129,AL Sandersville,1600 MILLS LINDSEY SCHOOL ROAD,,WARTHEN,GA,GEORGIA,31094,13303,Washington,33.1189,-82.8608,2012,,"AL SANDERSVILLE, LLC (100%);",,N,,221112,,
116,1000130,Hanford Energy Park Peaker,10550 IDAHO AVE,,HANFORD,CA,CALIFORNIA,93230,06031,Kings,36.2689,-119.6469,2012,,HIGHSTAR IV GWF HOLDINGS LLC (100%);,,N,,221112,,
117,1000131,Bayswater Peaking Facility,14-25 BAY 24TH ST,,FAR ROCKAWAY,NY,NEW YORK,11691,36081,Queens,40.6106,-73.7614,2012,,NEXTERA ENERGY RESOURCES (100%);,,N,,221112,,
118,1000132,Astoria Gas Turbine Power,31 01 20TH AVE,,ASTORIA,NY,NEW YORK,11105,36081,Queens,40.7864,-73.9133,2012,Y,"NRG ENERGY, INC (100%);",,N,,221112,,
119,1000133,Pastoria Energy Facility,39789 EDMONSTON PUMPING PLANT,,LEBEC,CA,CALIFORNIA,93243,06029,Kern,34.9556,-118.844,2012,Y,CALPINE CORP (100%);,,N,,221112,,
120,1000134,US GYPSUM - ALIQUIPPA PLANT,1 WOODLAWN ROAD,,ALIQUIPPA,PA,PENNSYLVANIA,15001,42007,BEAVER,40.6278,-80.2389,2012,,USG CORP (100%);,,N,,327420,,
121,1000135,"LSP University Park, LLC",787 INDUSTRIAL DRIVE,,UNIVERSITY PARK,IL,ILLINOIS,60466,17197,Will,41.4426,-87.7515,2012,,"LS POWER DEVELOPMENT, LLC (100%);",,N,,221112,,
122,1000136,Riverside Energy Center,1401 W B R TOWN LINE ROAD,,BELOIT,WI,WISCONSIN,53511,55105,Rock,42.5835,-89.0351,2012,,ALLIANT ENERGY CORP (100%);,,N,,221112,,
123,1000138,Lawrenceburg Energy Facility,582 W EADS PARKWAY,,LAWRENCEBURG,IN,INDIANA,47025,18029,Dearborn,39.0913,-84.8667,2012,,AMERICAN ELECTRIC POWER (100%);,,N,,221112,,
124,1000139,Bolster Compressor Station,,,Buffalo,WY,WYOMING,82834,56019,Johnson,44.1864,-106.1622,2012,,YATES PETROLEUM CORPORATION (100%);,,N,,211111,,
125,1000140,SONNEBORN LLC/PETROLIA PLT,100 SONNEBORN LN,,PETROLIA,PA,PENNSYLVANIA,16050,42019,BUTLER,41.01509,-79.71731,2012,,"SONNEBORN, LLC (100%);",,N,,324199,,
126,1000141,Blue Spruce Energy Center,1751 N POWHATON RD,,AURORA,CO,COLORADO,80019,08001,Adams,39.7436,-104.68,2012,,XCEL ENERGY INC (100%);,,N,,221112,,
127,1000143,UNIV OF OK HEALTH S/OKC CAMPUS SVCS,800 NE 15TH ST,,OKLAHOMA CITY,OK,OKLAHOMA,73104,40109,OKLAHOMA COUNTY,35.48426,-97.49857,2012,,THE STATE OF OKLAHOMA EX REL. THE BOARD OF REGENTS OF THE UNIVERSITY OF OKLAHOMA ON BEHALF OF THE HE (100%);,,N,,611310,,
128,1000144,Chehalis Generation Facility,1813 BISHOP ROAD,,CHEHALIS,WA,WASHINGTON,98532,53041,Lewis,46.6226,-122.9145,2012,,BERKSHIRE HATHAWAY (100%);,,N,,221112,,
129,1000145,Harrison County Power Project,12039 SH 43 SOUTH,,MARSHALL,TX,TEXAS,75670,48203,Harrison,32.3958,-94.4361,2012,,"NORTHEAST TEXAS ELECTRIC COOPERATIVE (55%);EAST TEXAS ELECTRIC COOPERATIVE, INC (45%);",,N,,221112,,
130,1000146,"Lower Mount Bethel Energy, LLC",6079 DU PUES FERRY ROAD,,BANGOR,PA,PENNSYLVANIA,18013,42095,Northampton,40.8011,-75.105,2012,,"PPL GENERATION, LLC (100%);",,N,,221112,,
131,1000147,Larkspur Energy Faciity,9355 OTAY MESA ROAD,,SAN DIEGO,CA,CALIFORNIA,92154,06073,San Diego,32.5672,-116.9444,2012,,DIAMOND GENERATING CORP (100%);,,N,,221112,,
132,1000148,Chambersburg Units 12 & 13,ALLEMAN ROAD,,CHAMBERSBURG,PA,PENNSYLVANIA,17201,42055,Franklin,39.8668,-77.6859,2012,,"FIRSTENERGY GENERATION, LLC (50%);ALLEGHENY ENERGY (50%);",,N,,221112,,
133,1000149,Taconite Harbor Energy Center,8124 West Highway 61,,SCHROEDER,MN,MINNESOTA,55613,27031,Cook,47.5314,-90.9111,2012,Y,"ALLETE, INC. (100%);",,N,,221112,,
134,1000150,Chuck Lenzie Generating Station,11405 US HIGHWAY 93,,APEX,NV,NEVADA,89124,32003,Clark,36.3853,-114.9228,2012,,NV ENERGY (100%);,,N,,221112,,
135,1000151,Peno Creek Energy Center,16303 PIKE 43,,BOWLING GREEN,MO,MISSOURI,63334,29163,Pike,39.3531,-91.2295,2012,Y,AMEREN CORP (100%);,,N,,221112,,
136,1000152,Crossroads Energy Center (CPU),240 HICKS ST,,CLARKSDALE,MS,MISSISSIPPI,38614,28027,Coahoma,34.183,-90.5621,2012,,CLARKSDALE PUBLIC UTILITIES COMMISSION (100%);,,N,,221112,,
137,1000153,"Dynegy Hanging Rock, II LLC",1395 COUNTY RD 1A,,IRONTON,OH,OHIO,45638,39087,Lawrence,38.5731,-82.7833,2012,,DUKE ENERGY CORP (100%);,,N,,221112,,
138,1000155,Broadway Avenue Generating Station,2600 BROADWAY AVE,,EVANSVILLE,IN,INDIANA,47712,18163,Vanderburgh,37.9694,-87.6044,2012,,VECTREN CORP (100%);,,N,,221112,,
139,1000156,Mittal Steel USA - Indiana Harbor East,3210 WATLING ST,,EAST CHICAGO,IN,INDIANA,46312,18089,Lake,41.68,-87.4264,2012,Y,ARCELORMITTAL USA LLC (100%);,,N,,331111,,
140,1000157,Hardin Generating Station,RT 1 BX 1144A SUGAR FACTORY RD,,HARDIN,MT,MONTANA,59034,30003,Big Horn,45.7578,-107.6,2012,Y,BICENT POWER LLC (100%);,,N,,221112,,
141,1000158,Ascend (Decatur Plant),1050 CHEMSTRAND AVENUE,,DECATUR,AL,ALABAMA,35601,01103,Morgan,34.6339,-87.0244,2012,Y,ASCEND PERFORMANCE MATERIALS LLC (100%);,,N,,325199,,
142,1000159,US Steel (Fairfield Works),5700 VALLEY ROAD,,FAIRFIELD,AL,ALABAMA,35064,01073,Jefferson,33.4833,-86.9261,2012,,UNITED STATES STEEL CORPORATION (100%);,,N,,331111,,
143,1000161,Redding Power Plant,17120 CLEAR CREEK ROAD,,REDDING,CA,CALIFORNIA,96001,06089,Shasta,40.5083,-122.4253,2012,,CITY OF REDDING (100%);,,N,,221112,,
144,1000162,Lordsburg Generating Station,2 POWER PLANT ROAD,,LORDSBURG,NM,NEW MEXICO,88045,35023,Hidalgo,32.3494,-108.6975,2012,,PUBLIC SERVICE COMPANY OF NEW MEXICO (100%);,,N,,221112,,
145,1000163,Mill Creek Combustion Turbine Sta,317 ELM ROAD,,BLACKSBURG,SC,SOUTH CAROLINA,29702,45021,Cherokee,35.1597,-81.4306,2012,,DUKE ENERGY CORP (100%);,,Y,,221112,,
146,1000165,Purdue University-Wade Utility,401 SOUTH GRANT ST,,WEST LAFAYETTE,IN,INDIANA,47907,18157,Tippecanoe,40.4172,-86.9117,2012,Y,STATE OF INDIANA (100%);,,Y,,611310,,
147,1000166,KapStone Paper and Packaging Corp,100 GASTON ROAD,,ROANOKE RAPIDS,NC,NORTH CAROLINA,27870,37083,Halifax,36.4769,-77.6414,2012,Y,KAPSTONE PAPER & PACKAGING CORP (100%);,,N,,322121,,
148,1000168,"Dynegy Energy Washington II, LLC",859 ST RT 83,,BEVERLY,OH,OHIO,45715,39167,Washington,39.5798,-81.6571,2012,,DUKE ENERGY CORP (100%);,,N,,221112,,
149,1000169,Raccoon Creek Power Plant,676 CYPRESS DRIVE,,FLORA,IL,ILLINOIS,62839,17025,Clay,38.6996,-88.5392,2012,Y,AMEREN CORP (100%);,,N,,221112,,
150,1000170,Essential Power Newington Energy LLC,200 SHATTUCK WAY,,NEWINGTON,NH,NEW HAMPSHIRE,03801,33015,Rockingham,43.1047,-70.8044,2012,,"ESSENTIAL POWER, LLC (100%);",,N,,221112,,
151,1000171,Choctaw County Gen,091 HIGHWAY 407 WEST,,FRENCH CAMP,MS,MISSISSIPPI,39745,28019,Choctaw,33.2881,-89.4201,2012,Y,NRG ENERGY INC (100%);,,N,,221112,,
152,1000172,Nacogdoches Power LLC,499 County Road 988,,Cushing,TX,TEXAS,75760,48347,Nacogdoches,31.8326,-94.9006,2012,Y,SOUTHERN COMPANY (100%);,,N,,221112,,
153,1000173,DTE East China,4490 NORTH RIVER RD,,EAST CHINA,MI,MICHIGAN,48054,26147,Saint Clair,42.774,-82.4818,2012,,DTE ENERGY CO (100%);,,N,,221112,,
154,1000174,Buchanan Units 1 & 2,RT 626 OFF RT 460,,KEEN MOUNTAIN,VA,VIRGINIA,24631,51027,Buchanan,37.1753,-81.9617,2012,,"FIRSTENERGY GENERATION, LLC (50%);BUCHANAN GENERATION, LLC (50%);",,N,,221112,,
155,1000175,Los Esteros Critical Energy Fac,800 THOMAS FOON CHEW WAY,,SAN JOSE,CA,CALIFORNIA,95134,06085,Santa Clara,37.425,-121.9319,2012,Y,CALPINE CORP (100%);,,N,,221112,,
156,1000176,LAKE COUNTY CENTRAL PHASE I LANDFILL,13130 COUNTY LANDFILL ROAD,,TAVARES,FL,FLORIDA,32778,12069,LAKE COUNTY,28.76115,-81.738,2012,,LAKE COUNTY BOARD OF COUNTY COMMISSIONERS (A POLITICAL SUBDIVISION OF THE STATE OF FLORIDA) (100%);,,N,,562212,,
157,1000179,Bernville Station,306 Station Rd,,Robesonia,PA,PENNSYLVANIA,19551,42011,Berks,40.4092,-76.1511,2012,,"TEXAS EASTERN TRANSMISSION, L.P. (100%);",,N,,486210,,
158,1000180,Shermans Dale Station,425 TEXAS EASTERN RD,,SHERMANS DALE,PA,PENNSYLVANIA,17090,42099,Perry,40.3439,-77.1628,2012,,"TEXAS EASTERN TRANSMISSION, L.P. (100%);",,N,,486210,,
159,1000181,Pyramid Generating Station,53 RAMOS FARMS ROAD,,LORDSBURG,NM,NEW MEXICO,88045,35023,Hidalgo,32.2363,-108.5494,2012,,TRI-STATE GENERATION & TRANSMISSION (100%);,,N,,221112,,
160,1000182,Kalkaska Ct Project #1,1750 PROUGH ROAD SW,,KALKASKA,MI,MICHIGAN,49646,26079,Kalkaska,44.6889,-85.2019,2012,,MICHIGAN PUBLIC POWER AGENCY (100%);,,NA,,221112,,
161,1000183,P H Glatfelter Company - Chillicothe Fac,232 East 8th Street,,CHILLICOTHE,OH,OHIO,45601,39141,Ross,39.3265,-82.9744,2012,Y,P.H GLATFELTER CORPORATION (100%);,,N,,322121,,
162,1000184,DARTCO OF TEXAS WAXAHACHIE SITE,850 SOLON ROAD,,WAXAHACHIE,TX,TEXAS,75165,48139,ELLIS,32.426944,-96.85,2012,,DART CONTAINER OF MICHIGAN LLC (4%);DART CONTAINER CORP (96%);,,N,,326140,,
163,1000185,Magnet Cove Generating Station,410 HENDERSON ROAD,,MALVERN,AR,ARKANSAS,72104,05059,Hot Spring,34.4304,-92.8333,2012,,ARKANSAS ELECTRIC COOPERATIVE CORP (100%);,,N,,221112,,
164,1000186,Procter & Gamble Company - Ivorydale,5201 SPRING GROVE AVE,,CINCINNATI,OH,OHIO,45217,39061,Hamilton,39.1756,-84.5022,2012,Y,THE PROCTER & GAMBLE COMPANY (81.3%);DTE ENERGY CO (18.7%);,,Y,,325611,,
165,1000188,Lamar,100 N SECOND ST,,LAMAR,CO,COLORADO,81052,08099,Prowers,38.0921,-102.6148,2012,Y,LAMAR LIGHT AND POWER (100%);,,N,,221112,,
166,1000190,Silver Creek Generating Plant,217 MOSES LANE,,PRENTISS,MS,MISSISSIPPI,39474,28065,Jefferson Davis,31.6004,-89.9468,2012,Y,SOUTH MISSISSIPPI ELECTRIC POWER ASSOC (100%);,,N,,221112,,
167,1000191,BUTLER COUNTY LANDFILL INCORPORATED,3588 R RD,,DAVID CITY,NE,NEBRASKA,68632,31023,BUTLER,41.258598,-97.037286,2012,,"WASTE CONNECTIONS, INC (100%);",,N,,562212,,
168,1000192,Labadie,226 LABADIE POWER PLANT ROAD,,LABADIE,MO,MISSOURI,63055,29071,Franklin,38.5583,-90.8361,2012,Y,AMEREN CORP (100%);,,N,,221112,,
169,1000193,INTERNATIONAL WAXES INC,45 Route 446,,SMETHPORT,PA,PENNSYLVANIA,16749,42083,MCKEAN,41.860556,-78.445,2012,,"THE INTERNATIONAL GROUP, INC (100%);",,N,,324199,,
170,1000194,"EOG Resources, Inc. Hays Compressor Station",6401 CR 1232,,GODLEY,TX,TEXAS,76044,48251,JOHNSON,32.408303,-97.557492,2012,,"EOG RESOURCES, INC (100%);",,N,,211111,,
171,1000196,International Paper - Pensacola Mill,375 Muscogee Rd,,CANTONMENT,FL,FLORIDA,32533,12033,ESCAMBIA,30.60539,-87.322938,2012,Y,INTERNATIONAL PAPER CO (100%);,,N,,322121,322110,
172,1000197,NATIONAL BEEF PACKING CO L.L.C.,2000 EAST TRAIL STREET,,DODGE CITY,KS,KANSAS,67801,20057,FORD,37.748,-99.984806,2012,,"NBPCO HOLDINGS, LLC (5.33%);UNITED STATES PREMIUM BEEF LTD (15.07%);LEUCADIA NATIONAL CORPORATION (78.95%);TMK HOLDINGS, LLC (0.65%);",,N,,311611,,
173,1000198,LEHIGH CEMENT CO LLC,200 HOKES MILL ROAD,,YORK,PA,PENNSYLVANIA,17404,42133,YORK,39.94778,-76.76918,2012,Y,LEHIGH CEMENT COMPANY LLC (100%);,,N,,327310,,
174,1000199,DON HENRY POWER CENTER,110 NORTH MARIAN ROAD,,HASTINGS,NE,NEBRASKA,68901,31001,ADAMS,40.583086,-98.420023,2012,,"HASTINGS UTILITIES / CITY OF HASTINGS, NE (100%);",,N,,221112,,
175,1000200,Butler-Warner Generation Plant,2274 CUSTER AVE,,FAYETTEVILLE,NC,NORTH CAROLINA,28312,37051,Cumberland,35.0986,-78.8294,2012,,PUBLIC WORKS COMMISSION OF THE CITY OF FAYETTEVILLE (100%);,,N,,221112,,
176,1000201,UNIVERSITY OF TENNESSEE STEAM PLANT,1617 LAKE LOUDON BOULEVARD,,KNOXVILLE,TN,TENNESSEE,37996,47093,KNOX,35.950143,-83.926239,2012,,THE UNIVERSITY OF TENNESSEE (100%);,,Y,,611310,,
177,1000202,"NGPL Station 198 Knoxville, IA",1616 165TH AVE,,KNOXVILLE,IA,IOWA,50138,19125,MARION,41.292786,-93.033437,2012,,PIPECO LLC (100%);,,N,,486210,,
178,1000203,Lakefield Junction Generating,2159 20TH AVE,,TRIMONT,MN,MINNESOTA,56176,27091,Martin,43.7984,-94.8415,2012,,GREAT RIVER ENERGY (100%);,,N,,221112,,
179,1000204,"Harrison Station - Dominion Transmission, Inc",1001 Pleasant Valley Road,,Harrison Valley,PA,PENNSYLVANIA,16927,42105,POTTER COUNTY,41.980154,-77.686887,2012,,DOMINION RESOURCES INC (50%);EL PASO CORP (50%);,,N,,486210,,
180,1000205,Okaloosa Gas District,364 Valparaiso Pkwy,,Valparaiso,FL,FLORIDA,32580,12091,OKALOOSA COUNTY,30.50983,-86.49674,2012,,OKALOOSA GAS DISTRICT (100%);,,N,,221210,,
181,1000206,Burrillville,54 Algonquin Lane,,Pascoag,RI,RHODE ISLAND,02859,44007,PROVIDENCE,41.9682,-71.7555,2012,,"ALGONQUIN GAS TRANSMISSION, LLC (100%);",,N,,486210,,
182,1000207,Grays Harbor Energy Center,401 Keys Rd,,Elma,WA,WASHINGTON,98541,53027,Grays Harbor,46.9688,-123.48,2012,,"INVENERGY INVESTMENT COMPANY LLC (50%);STARK POWER GENERATION I HOLDINGS, LLC (50%);",,N,,221112,,
183,1000208,AMP-Ohio Gas Turbines Bowling Green,1225 North College Drive,,Bowling Green,OH,OHIO,43402,39173,Wood,41.3989,-83.6411,2012,,AMERICAN MUNICIPAL POWER (100%);,,N,,221112,,
184,1000209,OMEGA JV2 Bowling Green,811 East Poe Rd,,Bowling Green,OH,OHIO,43402,39173,Wood,41.3883,-83.6406,2012,,OMEGA JV2 (100%);,,N,,221112,,
185,1000211,Elk River,17845 EAST HIGHWAY 10,,ELK RIVER,MN,MINNESOTA,55330,27141,Sherburne,45.2958,-93.5542,2012,Y,GREAT RIVER ENERGY (100%);,,N,,562213,221112,
186,1000214,AK STEEL CORPORATION,6500 N US HIGHWAY 231,,ROCKPORT,IN,INDIANA,47635,18147,SPENCER,37.9849,-87.0259,2012,,AK STEEL CORPORATION (100%);,,N,,331111,,
187,1000215,POLK COUNTY LANDFILL,3477 FM 942 W,,LEGGETT,TX,TEXAS,77350,48373,POLK,30.83268,-94.92369,2012,,"POLK COUNTY, TX (100%);",,N,,562212,,
188,1000216,Kekaha Landfill,600 E Kaumualii Highway,,Kekaha,HI,HAWAII,96752,15007,KAUAI,21.975454,-159.73786,2012,,"WASTE MANAGEMENT, INC. (100%);",,N,,562212,,
189,1000217,"CHAMBERS OF MISSISSIPPI INC, CLEARVIEW ENVIRONMENTAL CONTROL FACILITY LANDFILL",2253 MUDLINE ROAD,,LAKE,MS,MISSISSIPPI,39092,28123,SCOTT,32.226346,-89.372269,2012,,"WASTE MANAGEMENT, INC. (100%);",,N,,562212,,
190,1000218,PINE RIDGE RECYCLING & DISPOSAL,5400 REX DR,,WINTER GARDEN,FL,FLORIDA,34787,12095,ORANGE,28.487325,-81.651813,2012,,"WASTE MANAGEMENT, INC. (100%);",,N,,562212,,
191,1000219,French Island,200 SOUTH BAINBRIDGE STREET,,LA CROSSE,WI,WISCONSIN,54603,55063,La Crosse,43.8298,-91.26,2012,,XCEL ENERGY INC (100%);,,N,,221112,,
192,1000221,Alfred L Pierce Generating Station,195 EAST ST,,WALLINGFORD,CT,CONNECTICUT,06492,09009,New Haven,41.4485,-72.834,2012,,CONNECTICUT MUNICIPAL ELECTRIC ENERGY COOPERATIVE (100%);,,N,Y,221112,,
193,1000222,Sumpter Plant,8509 RAWSONVILLE ROAD,,BELLEVILLE,MI,MICHIGAN,48111,26163,Wayne,42.167,-83.5318,2012,,WOLVERINE POWER SUPPLY COOPERATIVE INC (100%);,,N,,221112,,
194,1000223,Greater Des Moines Energy Center,4401A CARLISLE RD,,PLEASANT HILL,IA,IOWA,50317,19153,Polk,41.5563,-93.5283,2012,,"BERKSHIRE HATHAWAY, INC. (100%);",,N,,221112,,
195,1000224,Lake,164 W MAGNOLIA,,BURBANK,CA,CALIFORNIA,91502,06037,Los Angeles,34.1775,-118.3147,2012,,BURBANK WATER AND POWER (100%);,,N,,221112,,
196,1000225,CPI USA North Carolina Southport,1281 POWERHOUSE DR SE,,SOUTHPORT,NC,NORTH CAROLINA,28461,37019,Brunswick,33.9444,-78.0125,2012,Y,CPI USA NORTH CAROLINA LLC (100%);,,Y,,221112,,
197,1000226,CPI USA North Carolina Roxboro,331 ALLIE CLAY RD,,ROXBORO,NC,NORTH CAROLINA,27573,37145,Person,36.435,-78.9619,2012,Y,CPI USA NORTH CAROLINA LLC (100%);,,Y,,221112,,
198,1000227,Coastal Carolina Clean Power LLC,1838 NC 11 & 903,,KENANSVILLE,NC,NORTH CAROLINA,28349,37061,Duplin,35.0225,-77.8575,2012,Y,"REENERGY HOLDINGS, LLC (100%);",,Y,,221112,,
199,1000228,Weyerhaeuser - New Bern,1785 Weyerhaeuser Road,,Vanceboro,NC,NORTH CAROLINA,28586,37049,Craven,35.2081,-77.1242,2012,,WEYERHAEUSER NR CO. (100%);,,N,,322110,,
200,1000229,Domtar Paper Company LLC - Plymouth,NC HWY 149 N,,PLYMOUTH,NC,NORTH CAROLINA,27962,37117,Martin,35.8628,-76.7831,2012,Y,"DOMTAR PAPER CO, LLC (100%);",,N,,322110,,
201,1000230,Blue Ridge Paper Products Inc.,175 MAIN ST,,CANTON,NC,NORTH CAROLINA,28716,37087,Haywood,35.535,-82.8411,2012,Y,"REYNOLDS GROUP HOLDINGS, INC (100%);",322121,N,,322110,322130,
202,1000231,"Edgecombe Genco, LLC",6358 OLD BATTLEBORO RD 27809,,BATTLEBORO,NC,NORTH CAROLINA,27809,37065,Edgecombe,36.0378,-77.7542,2012,Y,CALYPSO ENERGY HOLDINGS LLC (100%);,,Y,,221112,,
203,1000232,Eastman Chemical Company,EASTMAN ROAD AND LINCOLN ST,,KINGSPORT,TN,TENNESSEE,37662,47163,Sullivan,36.5192,-82.535,2012,Y,EASTMAN CHEMICAL COMPANY (100%);,,N,,325211,,
204,1000233,US Steel (Edgar Thomson),13th Street and Braddock Avenue,,Braddock,PA,PENNSYLVANIA,15104,42003,Allegheny,40.3925,-79.8564,2012,,UNITED STATES STEEL CORPORATION (100%);,,Y,,331111,,
205,1000234,The University of NC Chapel Hill,501 CAMERON AVE,,CHAPEL HILL,NC,NORTH CAROLINA,27599,37135,Orange,35.9069,-79.0617,2012,Y,THE STATE OF NORTH CAROLINA (100%);,,Y,,611310,,
206,1000235,Shenango Incorporated,200 NEVILLE RD.,,PITTSBURGH,PA,PENNSYLVANIA,15225,42003,Allegheny,40.4967,-80.0756,2012,,DTE ENERGY CO (100%);,,N,,324199,,
207,1000236,Portside Energy,6290 US HWY 12,,PORTAGE,IN,INDIANA,46368,18127,Porter,41.6317,-87.1728,2012,,PRIMARY ENERGY RECYCLING HOLDINGS LLC (100%);,,Y,,221122,,
208,1000237,Sundance Power Plant,2060 SUNDANCE ROAD,,CASA GRANDE,AZ,ARIZONA,85228,04021,Pinal,32.9285,-111.5899,2012,,PINNACLE WEST CAPITAL CORP (100%);,,N,,221112,,
209,1000240,"SP Fiber Technologies Southeast, LLC",709 PAPERMILL ROAD,,DUBLIN,GA,GEORGIA,31027,13175,LAURENS,32.504129,-82.844859,2012,Y,SP NEWSPRINT HOLDING LLC (100%);,,Y,,322121,,
210,1000241,Kyrene Generating Station,7005 S KYRENE RD,,TEMPE,AZ,ARIZONA,85283,04013,Maricopa,33.3544,-111.9364,2012,,SALT RIVER PROJECT (100%);,,N,,221112,,
211,1000242,U.S. Lime Compressor,Fron Glen Rose East on US67-8.18 milesto Intx CR 1119 SW on CR 1119-0.27 mi ti Intx of CR 1234 TL on CR 1234 and follow Rd for 1000ft to entrance on east,,Godley,TX,TEXAS,76044,48251,JOHNSON,32.445575,-97.56806,2012,,"EOG RESOURCES, INC (100%);",,N,,211111,,
212,1000243,LAFARGE MIDWEST INC JOPPA PLANT,2500 PORTLAND RD,,GRAND CHAIN,IL,ILLINOIS,62941,17153,PULASKI,37.216953,-88.881162,2012,Y,LAFARGE NORTH AMERICA INC (100%);,,N,,327310,,
213,1000244,Bennett Mountain Power Project,2750 NE Industrial Way,,Mountain Home,ID,IDAHO,83647,16039,Elmore,43.147,-115.6671,2012,,IDACORP (100%);,,N,,221112,,
214,1000245,"ALLIANCE PIPELINE, L.P.-FAIRMOUNT COMPRESSOR STATION",17950 98TH ST SE,,FAIRMOUNT,ND,NORTH DAKOTA,58030,38077,RICHLAND,45.993367,-96.648999,2012,,ENBRIDGE INC (50%);VERESEN INC (50%);,,N,,486210,,
215,1000246,Frank M Tait Station,2102 ARBOR BLVD,,MORAINE,OH,OHIO,45439,39113,Montgomery,39.7281,-84.2103,2012,,DAYTON POWER AND LIGHT COMPANY (100%);,,N,,221112,,
216,1000247,SIGNAL MOUNTAIN CEMENT CO,1201 SUCK CREEK ROAD,,CHATTANOOGA,TN,TENNESSEE,37405,47065,HAMILTON,35.101197,-85.345342,2012,,RC LONESTAR INC (100%);,,N,,327310,,
217,1000248,"Otsego Paper, Inc.",320 NORTH FARMER ST,,OTSEGO,MI,MICHIGAN,49078,26005,Allegan,42.4641,-85.6941,2012,,USG CORP (100%);,,Y,,322121,,
218,1000249,West Campus Cogeneration Facility,515 WALNUT ST,,MADISON,WI,WISCONSIN,53701,55025,Dane,43.0751,-89.4251,2012,,MADISON GAS AND ELECTRIC CO. (100%);,,Y,,221112,,
219,1000250,Santan,1005 S VAL VISTA DRIVE,,GILBERT,AZ,ARIZONA,85296,04013,Maricopa,33.3333,-111.751,2012,,SALT RIVER PROJECT (100%);,,N,,221112,,
220,1000251,Grant Town Power Plant,228 ABPP Drive,,GRANT TOWN,WV,WEST VIRGINIA,26574,54049,Marion,39.5611,-80.1642,2012,Y,AMERICAN BITUMINOUS POWER PARTNERS (100%);,,N,,221112,,
221,1000252,Cogentrix-Hopewell,912 E RANDOLPH RD,,HOPEWELL,VA,VIRGINIA,23860,51670,Hopewell (City),37.2939,-77.2697,2012,Y,"JAMES RIVER GENCO, LLC (100%);",,Y,,221112,,
222,1000253,Morgantown Energy Facility,555 BEECHURST AVE,,MORGANTOWN,WV,WEST VIRGINIA,26505,54061,Monongalia,39.6397,-79.9606,2012,Y,"EIF MORGANTOWN HOLDINGS, LLC (50%);CALYPSO ENERGY HOLDINGS LLC (15%);RCM MORGANTOWN POWER, LTD (35%);",,Y,,221112,,
223,1000254,Axiall Corporation - Natrium Plant,"15696 Energy Road, State Route 2",,Proctor,WV,WEST VIRGINIA,26055,54051,Marshall,39.7475,-80.8547,2012,Y,PPG INDUSTRIES INC (100%);,,Y,,325181,325188,
224,1000255,"Optim Energy Altura Cogen, LLC",2330 SHELDON ROAD,,CHANNELVIEW,TX,TEXAS,77530,48201,Harris,29.8169,-95.1086,2012,,"OPTIM ENERGY, LLC (100%);",,Y,,221112,,
225,1000256,"WestRock Virginia, Covington",104 EAST RIVERSIDE ST,,COVINGTON,VA,VIRGINIA,24426,51005,Alleghany,37.7997,-79.9946,2012,Y,MEADWESTVACO CORP (100%);,,N,,322130,325998,
226,1000257,Mecklenburg Power Station,204 COGEN DRIVE,,CLARKSVILLE,VA,VIRGINIA,23927,51117,Mecklenburg,36.6009,-78.53,2012,Y,DOMINION RESOURCES INC (100%);,,N,,221112,,
227,1000258,International Paper-Franklin Mill,34040 UNION CAMP DR,,FRANKLIN,VA,VIRGINIA,23851,51093,Isle of Wight,36.6803,-76.9128,2012,,INTERNATIONAL PAPER CO (100%);,,N,,322121,322110,
228,1000259,Birchwood Power Facility,10900 BIRCHWOOD DRIVE,,KING GEORGE,VA,VIRGINIA,22485,51099,King George,38.2667,-77.3147,2012,Y,"J-POWER DEVELOPMENT CO, LTD. (50%);GE ENERGY FINANCIAL SERVICES (50%);",,N,,221112,,
229,1000260,ArcelorMittal Weirton LLC,100 Pennsylvania Avenue,,WEIRTON,WV,WEST VIRGINIA,26062,54029,Hancock,40.422,-80.5955,2012,,ARCELORMITTAL USA LLC (100%);,,N,,332813,,
230,1000261,Ingredion Incorporated Argo Plant,6400 SOUTH ARCHER AVE,,BEDFORD PARK,IL,ILLINOIS,60501,17031,Cook,41.7775,-87.8233,2012,Y,INGREDION INCORPORATED (100%);,,N,,311221,,
231,1000262,"WestRock Coated Board, LLC",1817 Highway 165 South,,PHENIX CITY,AL,ALABAMA,36868,01113,Russell,32.175,-85.0311,2012,,MEADWESTVACO CORP (100%);,,N,,322121,,
232,1000263,Gordonsville Power Station,819 Hill Road,,GORDONSVILLE,VA,VIRGINIA,22942,51109,Louisa,38.1245,-78.2031,2012,,DOMINION RESOURCES INC (100%);,,N,,221112,,
233,1000264,Goose Creek Power Plant,760 EAST 2150 NORTH ROAD,,MONTICELLO,IL,ILLINOIS,61856,17147,Piatt,40.1083,-88.5986,2012,Y,AMEREN CORP (100%);,,N,,221112,,
234,1000265,"Dynegy Energy Fayette, II LLC",100 ENERGY DRIVE,,MASONTOWN,PA,PENNSYLVANIA,15461,42051,Fayette,39.8592,-79.9182,2012,,DUKE ENERGY CORP (100%);,,N,,221112,,
235,1000266,Binghamton Cogen Plant,22 CHARLES ST,,BINGHAMTON,NY,NEW YORK,13905,36007,Broome,42.1073,-75.9283,2012,,"BINGHAMTON BOP, LLC (100%);",,N,,221112,,
236,1000267,Edgewood Energy,WEST END CAMPUS ROAD,,BRENTWOOD,NY,NEW YORK,11717,36103,Suffolk,40.7861,-73.2931,2012,,J POWER USA DEVELOPMENT CO LTD (100%);,,N,,221112,,
237,1000268,Shoreham Energy,227 N COUNTY RD,,SHOREHAM,NY,NEW YORK,11719,36103,Suffolk,40.9572,-72.8664,2012,,J POWER USA DEVELOPMENT CO LTD (100%);,,N,,221112,,
238,1000269,"FPL Energy Marcus Hook, LP",100 Green Street,,MARCUS HOOK,PA,PENNSYLVANIA,19061,42045,Delaware,39.8083,-75.4225,2012,,NEXTERA ENERGY RESOURCES (100%);,,Y,,221112,,
239,1000270,Valencia Power Plant,55 CHRISTINE DRIVE,,BELEN,NM,NEW MEXICO,87002,35061,Valencia,34.6063,-106.732,2012,,SOUTHWEST GENERATION OPERATING CO (100%);,,N,,221112,,
240,1000271,Rocky Mountain Energy Center,6211 WELD COUNTY RD 51,,KEENESBURG,CO,COLORADO,80643,08123,Weld,40.0911,-104.5947,2012,,XCEL ENERGY INC (100%);,,N,,221112,,
241,1000272,UCC South Charleston Plant,MACCORKLE AVE,,SOUTH CHARLESTON,WV,WEST VIRGINIA,25303,54039,Kanawha,38.3688,-81.6786,2012,Y,THE DOW CHEMICAL CO (100%);,,N,,325199,,
242,1000273,"GP Big Island, LLC",9363 Lee Jackson Hwy,,BIG ISLAND,VA,VIRGINIA,24526,51019,Bedford,37.534,-79.357,2012,,"KOCH INDUSTRIES, INC. (100%);",,N,,322130,,
243,1000274,AK Steel Corporation - Middletown,1801 CRAWFORD STREET,,MIDDLETOWN,OH,OHIO,45043,39017,Butler,39.4968,-84.3901,2012,,AK STEEL CORP (100%);,,N,,331111,,
244,1000275,Bayer Cropscience Institute Plant,ROUTE 25 AND INTERSTATE 64,,INSTITUTE,WV,WEST VIRGINIA,25112,54039,Kanawha,38.3864,-81.7797,2012,Y,BAYER GROUP (100%);,,N,,325320,,
245,1000276,INVISTA S.a.r.l. Camden Plant,643 HIGHWAY 1 SOUTH,,LUGOFF,SC,SOUTH CAROLINA,29078,45055,Kershaw,34.2337,-80.658,2012,,KOCH INDUSTRIES INC (100%);,,N,,325211,325222,
246,1000277,Jasper County Generating Facility,10719 PURRYSBURG ROAD,,HARDEEVILLE,SC,SOUTH CAROLINA,29927,45053,Jasper,32.3592,-81.1236,2012,Y,SCANA CORP (100%);,,N,,221112,,
247,1000278,Walter M. Higgins III Generating Station,1275 E PRIMM BLVD,,PRIMM,NV,NEVADA,89019,32003,Clark,35.6139,-115.3561,2012,,NV ENERGY (100%);,,N,,221112,,
248,1000279,Feather River Energy Center,202 BURNS DRIVE,,YUBA CITY,CA,CALIFORNIA,95993,06101,Sutter,39.1088,-121.6133,2012,Y,CALPINE CORP (100%);,,N,,221112,,
249,1000280,Wolfskill Energy Center,2425 CORDELIA ROAD,,FAIRFIELD,CA,CALIFORNIA,94534,06095,Solano,38.2282,-122.076,2012,Y,CALPINE CORP (100%);,,N,,221112,,
250,1000281,"AES Deepwater, Inc.",701 LIGHT COMPANY ROAD,,PASADENA,TX,TEXAS,77506,48201,Harris,29.7192,-95.2278,2012,Y,THE AES CORP (100%);,,Y,,221119,,
251,1000282,"DTE Calvert City, LLC",480 N MAIN,,CALVERT CITY,KY,KENTUCKY,42029,21157,Marshall,37.0467,-88.3506,2012,,DTE ENERGY CO (100%);,,Y,,221330,,
252,1000283,Henrietta Peaker Plant,16027 25TH AVE,,LEMOORE,CA,CALIFORNIA,93245,06031,Kings,36.2397,-119.9044,2012,,HIGHSTAR IV GWF HOLDINGS LLC (100%);,,N,,221112,,
253,1000284,Beatrice,20261 SW 61ST RD,,BEATRICE,NE,NEBRASKA,68310,31067,Gage,40.3286,-96.8067,2012,Y,NEBRASKA PUBLIC POWER DISTRICT (100%);,,N,,221112,,
254,1000285,Benson Power Biomass Plant,900 Industry Dr,,Benson,MN,MINNESOTA,56215,27151,Swift,45.2996,-95.5604,2012,Y,CONTOURGLOBAL (100%);,,N,,221112,,
255,1000286,Naval Station - Great Lakes,"310 B Street, Bldg. 1H",,Great Lakes,IL,ILLINOIS,60088,17097,LAKE COUNTY,42.31318,-87.83207,2012,,US GOVERNMENT (%);,,Y,,928110,,
256,1000287,BLACK HAWK COUNTY SANITARY LANDFILL,1509 EAST WASHBURN ROAD,,WATERLOO,IA,IOWA,50701,19013,BLACK HAWK COUNTY,42.41588,-92.32885,2012,,BLACK HAWK COUNTY LANDFILL (100%);,,N,,562212,,
257,1000288,Freeport Power Plant No. 2,289 BUFFALO AVE,,FREEPORT,NY,NEW YORK,11520,36059,Nassau,40.6447,-73.5683,2012,,FREEPORT ELECTRIC (100%);,,N,,221112,,
258,1000289,California Resources Production Corporation – Lost Hills,12888 Holloway Road,,Lost Hills,CA,CALIFORNIA,93249,06029,KERN,35.686176,-119.801188,2012,,OCCIDENTAL PETROLEUM CORP (100%);,,N,,211111,,
259,1000290,Lehigh Northeast Cement Company,313 WARREN STREET,,GLENS FALLS,NY,NEW YORK,12801,36113,Warren,43.3064,-73.6208,2012,Y,LEHIGH HANSON (100%);,,N,,327310,,
260,1000291,WESTMORELAND SANITARY LDFL,111 CONNER LN,,BELLE VERNON,PA,PENNSYLVANIA,15012,42051,FAYETTE,40.144281,-79.858866,2012,,"TERVITA, LLC (100%);",,N,,562212,,
261,1000293,COVANTA ENERGY,2320 S HARDING ST,,INDIANAPOLIS,IN,INDIANA,46221,18097,MARION,39.7337,-86.1888,2012,Y,COVANTA HOLDING CORP (100%);,,N,,562213,,
262,1000294,Cogentrix-Portsmouth,ONE WILD DUCK LANE,,PORTSMOUTH,VA,VIRGINIA,23703,51740,Portsmouth,36.8703,-76.3519,2012,Y,"PORTSMOUTH GENCO, LLC (100%);",,N,,221112,,
263,1000295,"Spruance Genco, LLC",5001 COMMERCE ROAD,,RICHMOND,VA,VIRGINIA,23234,51760,Richmond (City),37.4556,-77.4308,2012,Y,CALYPSO ENERGY HOLDINGS LLC (100%);,,Y,,221112,,
264,1000296,DuPont Old Hickory,1002 INDUSTRIAL ROAD,,OLD HICKORY,TN,TENNESSEE,37138,47037,Davidson,36.2756,-86.6644,2012,,E I DU PONT DE NEMOURS & CO (100%);,,N,,313230,,
265,1000298,Sylvarena Generating Plant,3012 SMITH COUNTY ROAD 97,,RALEIGH,MS,MISSISSIPPI,39153,28129,Smith,31.9842,-89.4131,2012,Y,SOUTH MISSISSIPPI ELECTRIC POWER ASSOC (100%);,,N,,221112,,
266,1000300,"Gilroy Energy Center, LLC",1400 PACHECO PASS HWY,,GILROY,CA,CALIFORNIA,95020,06085,Santa Clara,36.999,-121.5363,2012,Y,CALPINE CORP (100%);,,N,,221112,,
267,1000301,Frederickson Power LP,18610 50Th Ave East,,Tacoma,WA,WASHINGTON,98446,53053,Pierce,47.0864,-122.3644,2012,,ATLANTIC POWER (50.15%);PUGET SOUND ENERGY (49.85%);,,N,Y,221112,,
268,1000302,Gravel Neck Combustion Turbine,5208 HOG ISLAND ROAD,,SURRY,VA,VIRGINIA,23883,51181,Surry,37.1575,-76.6911,2012,,DOMINION RESOURCES INC (100%);,,N,,221112,,
269,1000303,Darbytown Combustion Turbine,6001 FERGUS BLVD,,RICHMOND,VA,VIRGINIA,23883,51087,Henrico,37.4978,-77.368,2012,,DOMINION RESOURCES INC (100%);,,N,,221112,,
270,1000304,CARGILL CORN MILLING-WAHPETON FACILITY,18049 COUNTY ROAD 8,,WAHPETON,ND,NORTH DAKOTA,58075,38077,RICHLAND COUNTY,46.3504,-96.641386,2012,,CARGILL INC (100%);,,N,,311221,,
271,1000305,Resolute Forest Product - Coosa Pines Operation,17589 PLANT ROAD,,COOSA PINES,AL,ALABAMA,35044,01121,Talladega,33.3278,-86.3583,2012,Y,RESOLUTE FP US INC. (100%);,,N,,322110,,
272,1000306,The Johns Hopkins Hospital,1800 Orleans Street,,Baltimore,MD,MARYLAND,21287,24510,BALTIMORE CITY,39.2974,-76.59082,2012,,THE JOHNS HOPKINS UNIVERSITY (100%);,,Y,,622110,,
273,1000310,Donald Von Raesfeld,850 DUANE AVE,,SANTA CLARA,CA,CALIFORNIA,95054,06085,Santa Clara,37.3767,-121.9508,2012,,CITY OF SANTA CLARA (100%);,,N,,221112,,
274,1000311,Resolute Forest Products Calhoun Operation,5020 HWY 11 SOUTH,,CALHOUN,TN,TENNESSEE,37309,47107,Mcminn,35.2964,-84.7569,2012,Y,RESOLUTE FOREST PRODUCTS INC (100%);,,N,,322122,,
275,1000312,Elizabeth River Combustion Turbine Sta,2837 SOUTH MILITARY HWY,,CHESAPEAKE,VA,VIRGINIA,23323,51550,Chesapeake (City),36.7743,-76.3119,2012,,DOMINION RESOURCES INC (100%);,,N,,221112,,
276,1000314,"Wellhead Power Gates, LLC",39950 S BUTTE AVE,,HURON,CA,CALIFORNIA,93234,06019,Fresno,36.1522,-120.1481,2012,Y,"WELLHEAD POWER GATES, LLC (100%);",,N,,221112,,
277,1000315,Armagh Compressor Station,862 HORSE THIEF ROAD,,NEW FLORENCE,PA,PENNSYLVANIA,15944,42063,Indiana,40.4319,-79.085,2012,,"TEXAS EASTERN TRANSMISSION, L.P. (100%);",,N,,486210,,
278,1000316,Entriken Compressor Station,16707 LITTLE VALLEY RD,,JAMES CREEK,PA,PENNSYLVANIA,16657,42061,Huntingdon,40.3086,-78.1389,2012,,"TEXAS EASTERN TRANSMISSION, L.P. (100%);",,N,,486210,,
279,1000317,Emery Station,11295 230TH ST,,CLEAR LAKE,IA,IOWA,50428,19033,Cerro Gordo,43.094,-93.2922,2012,,ALLIANT ENERGY CORP (100%);,,Y,,221112,,
280,1000318,Hopewell Cogeneration Facility,1114 HERCULES ROAD,,HOPEWELL,VA,VIRGINIA,23860,51670,Hopewell,37.2914,-77.2821,2012,Y,"IPR-GDF SUEZ NORTH AMERICA, INC (100%);",,Y,,221119,221330,
281,1000319,"WestRock CP, LLC - Florence Mill",7320 PAPER MILL ROAD,,FLORENCE,SC,SOUTH CAROLINA,29501,45041,Florence,34.1519,-79.5587,2012,Y,ROCK-TENN COMPANY (100%);,,N,,322130,,
282,1000320,Westmoreland Partners Roanoke Valley I,290 POWER PLACE,,WELDON,NC,NORTH CAROLINA,27890,37083,Halifax,36.4364,-77.6167,2012,Y,WESTMORELAND COAL COMPANY (100%);,,N,,221112,,
283,1000321,Riverview Energy Center,795 MINAKER ROAD,,ANTIOCH,CA,CALIFORNIA,94509,06013,Contra Costa,38.0145,-121.7901,2012,Y,CALPINE CORP (100%);,,N,,221112,,
284,1000322,"Hawkeye Energy Greenport, LLC",1885 MOORE'S LANE,,GREENPORT,NY,NEW YORK,11944,36103,Suffolk,41.1056,-72.3767,2012,,"HAWKEYE ENERGY GREENPORT, LLC (100%);",,N,,221112,,
285,1000323,Cosumnes Power Plant,14295A Clay East Road,,HERALD,CA,CALIFORNIA,95638,06067,Sacramento,38.3383,-121.1239,2012,,SACRAMENTO MUNICIPAL UTILITY DISTRICT (100%);,,N,,221112,,
286,1000324,Marlboro Paper Mill,585 Willamette Rd,,Bennettsville,SC,SOUTH CAROLINA,29512,45069,Marlboro,34.605,-79.785,2012,,DOMTAR CORPORATION (100%);,,N,,322110,322121,
287,1000325,BP Amoco Chemical Company,1400 FINLEY ISLAND ROAD,,DECATUR,AL,ALABAMA,35601,01103,Morgan,34.64,-87.0583,2012,,BP AMERICA INC (100%);,325192,N,,325110,,
288,1000326,PECO Transmission and Distribution,2301 Market Street  S7-2,,Philadelphia,PA,PENNSYLVANIA,19103,42045,DELAWARE,39.832588,-75.424143,2012,,EXELON CORP (100%);,,N,,221121,221122,
289,1000328,"Dairy Farmers of America, Inc. - PORTALES",1820 S. INDUSTRIAL DR.,,PORTALES,NM,NEW MEXICO,88130,35041,ROOSEVELT,34.170552,-103.36991,2012,,"DAIRY FARMERS OF AMERICA, INC. (100%);",,N,,311514,,
290,1000329,CARDINAL GLASS PLT,515 CARDINAL PARKWAY,,DURANT,OK,OKLAHOMA,74701,40013,BRYAN,34.00071,-96.45341,2012,,CARDINAL GLASS INDUSTRIES (100%);,,N,,327211,,
291,1000330,ARCELORMITTAL LAPLACE LLC,138 HWY 3217,,LAPLACE,LA,LOUISIANA,70068,22095,ST JOHN THE BAPTIST,30.03686,-90.46454,2012,,ARCELORMITTAL USA LLC (100%);,,N,,331111,,
292,1000331,BEULAH SANITARY LANDFILL,6812 East New Market - Elwood Road,,HURLOCK,MD,MARYLAND,21643,24019,DORCHESTER,38.651945,-75.914445,2012,,COUNCIL OF DORCHESTER COUNTY (100%);,,N,,562212,,
293,1000333,Hancock Peakers,1781 HAGGERTY HWY,,COMMERCE TOWNSHIP,MI,MICHIGAN,48390,26125,Oakland,42.5497,-83.4425,2012,,DTE ENERGY CO (100%);,,N,,221112,,
294,1000334,Tate & Lyle,2200 EAST ELDORADO ST,,DECATUR,IL,ILLINOIS,62521,17115,Macon,39.8466,-88.9261,2012,Y,TATE & LYLE INGREDIENTS AMERICAS LLC (100%);,,Y,,311221,,
295,1000336,Koppers Inc. Stickney Plant,3900 South Laramie Avenue,,Cicero,IL,ILLINOIS,60804,17031,COOK,41.82027,-87.75163,2012,,KOPPERS INC (100%);,,N,,325192,,
296,1000338,"TORAY PLASTICS (AMERICA), INC.",50 BELVER AVENUE,,NORTH KINGSTOWN,RI,RHODE ISLAND,02852,44009,WASHINGTON COUNTY,41.593056,-71.426111,2012,,TORAY HOLDING (USA) INC (100%);,325211,Y,,326113,,
297,1000339,CITY OF SANTA CRUZ SANITARY LANDFILL,605 DIMEO LANE,,SANTA CRUZ,CA,CALIFORNIA,95060,06087,SANTA CRUZ,36.9764,-122.1054,2012,,CITY OF SANTA CRUZ (100%);,,Y,,562212,,
298,1000340,Joppa Steam,2100 PORTLAND ROAD,,JOPPA,IL,ILLINOIS,62953,17127,Massac,37.2103,-88.8606,2012,Y,AMEREN ENERGY GENERATING CO (80%);KENTUCKY UTILITIES CO (20%);,,N,,221112,,
299,1000341,AIR PRODUCTS MANUFACTURING CORP STOCKTON COGEN,1010 ZEPHYR ST.,,STOCKTON,CA,CALIFORNIA,95206,06077,SAN JOAQUIN,37.913056,-121.261944,2012,Y,AIR PRODUCTS & CHEMICALS INC (100%);,,Y,,221112,,
300,1000342,EQUISTAR CHEMICALS LP,8805 N. TABLER RD.,,MORRIS,IL,ILLINOIS,60450,17063,GRUNDY,41.412897,-88.329773,2012,,LYONDELLBASELL (100%);,,Y,,325110,325211,
301,1000343,Lemont Refinery,135TH STREET AND NEW AVENUE,,LEMONT,IL,ILLINOIS,60439,17197,Will,41.6439,-88.0467,2012,,PDV HOLDING INC (100%);,,N,,324110,,
302,1000344,GREEN PLAINS CENTRAL CITY LLC,214 20TH ST,,CENTRAL CITY,NE,NEBRASKA,68826,31121,MERRICK,41.109722,-97.971389,2012,,"GREEN PLAINS RENEWABLE ENERGY, INC (100%);",,N,,325193,,
303,1000345,"Foley Cellulose, LLC",1 BUCKEYE DRIVE,,PERRY,FL,FLORIDA,32348,12123,TAYLOR,30.068694,-83.52375,2012,,BUCKEYE TECHNOLOGIES INC (100%);,,N,,322110,,
304,1000346,Bayou Cogeneration Plant,11777 BAY AREA BLVD.,,PASADENA,TX,TEXAS,77507,48201,Harris,29.6225,-95.0458,2012,Y,AIR LIQUIDE LARGE INDUSTRIES US LP (100%);,"221112,221330",Y,,325120,,
305,1000347,Midland Cogeneration Venture,100 PROGRESS PLACE,,MIDLAND,MI,MICHIGAN,48640,26111,Midland,43.5861,-84.2242,2012,,MIDLAND COGENERATION VENTURE (100%);,,Y,,221112,221330,
306,1000348,Resolute FP US Inc. - Catawba Operations,5300 CURETON FERRY ROAD,,CATAWBA,SC,SOUTH CAROLINA,29704,45091,York,34.8456,-80.8942,2012,,RESOLUTE FOREST PRODUCTS (100%);,,N,,322121,322110,
307,1000349,OSCEOLA LANDFILL,1930 OSCEOLA ROAD,,GENEVA,FL,FLORIDA,32732,12117,SEMINOLE COUNTY,28.787739,-81.081861,2012,,SEMINOLE COUNTY BOARD OF COUNTY COMMISSIONERS (100%);,,N,,562212,,
308,1000350,Great Plains Natural Gas Company - MN,400 North Fourth Street,,Bismarck,ND,NORTH DAKOTA,58501,38015,BURLEIGH COUNTY,46.80891,-100.78652,2012,,MDU RESOURCES GROUP INC (100%);,,N,,221210,,
309,1000351,"MW/MB, LLC",1900 Corporate Parkway Boulevard,,Clarksville,TN,TENNESSEE,37040,47125,MONTGOMERY COUNTY,36.59626,-87.2652,2012,,MW/MB LLC (100%);,,N,,327212,,
310,1000352,"Green Plains Hereford, LLC",4300 CR 8,,Hereford,TX,TEXAS,79045,48117,DEAF SMITH COUNTY,34.84998,-102.28679,2012,,MURPHY OIL CORP (100%);,,N,,325193,,
311,1000353,Sonoco Products Co.,N. Second Street,,Hartsville,SC,SOUTH CAROLINA,29550,45031,Darlington,34.387,-80.0663,2012,,SONOCO  (100%);,,N,,322130,,
312,1000354,CYPRESS SEMICONDUCTOR MINNESOTA INC,2401 E. 86TH ST.,,BLOOMINGTON,MN,MINNESOTA,55425,27053,HENNEPIN COUNTY,44.84786,-93.23745,2012,,CYPRESS SEMICONDUCTOR CORP (100%);,,N,,334413,,
313,1000355,#540 BONANZA CREEK ENERGY - DENVER BASIN,"410 17th Street, Suite 1500",,Denver,CO,COLORADO,80202,08031,DENVER COUNTY,39.74387,-104.98915,2012,,"BONANZA CREEK ENERGY, INC (100%);",,N,,211111,,
314,1000356,BASF Corporation,2525 SOUTH KENSINGTON ROAD,,KANKAKEE,IL,ILLINOIS,60901,17091,KANKAKEE,41.085542,-87.880542,2012,,BASF CORPORATION (100%);,325211,N,,325613,,
315,1000357,CARGILL MEAT SOLUTIONS CORPORATION,1505 EAST BURLINGTON AVENUE,,FORT MORGAN,CO,COLORADO,80701,08087,MORGAN COUNTY,40.2469,-103.7756,2012,,CARGILL INC (100%);,,N,,311611,,
316,1000360,SANIMAX USA LLC,2099 BADGERLAND DRIVE,,GREEN BAY,WI,WISCONSIN,54303,55009,BROWN COUNTY,44.53556,-88.08267,2012,,SANIMAX USA INC (100%);,,N,,311613,,
317,1000362,CAMDEN CNTY RESOURCE RECOVERY ASSOC,600 MORGAN BOULEVARD,,CAMDEN,NJ,NEW JERSEY,08104,34007,CAMDEN,39.9094,-75.1167,2012,,CAMDEN COUNTY ENERGY RECOVERY CORPORATION (99%);FOSTER WHEELER POWER SYSTEMS (1%);,,N,,562213,,
318,1000363,"GOODRICH SPOKANE LANDING SYSTEMS, CARBON PRODUCTS",11135 W WESTBOW BLVD,,SPOKANE,WA,WASHINGTON,99224,53063,SPOKANE,47.583604,-117.568511,2012,,GOODRICH CORP (100%);,,N,,336413,,
319,1000364,Greene County,801 Steam Plant Road,,Forkland,AL,ALABAMA,36740,01063,Greene,32.6017,-87.7811,2012,Y,SOUTHERN CO (100%);,,N,,221112,,
320,1000365,Kersey Valley MSW Landfill,3748 E. Kivett Drive,,High Point,NC,NORTH CAROLINA,27263,37081,GUILFORD,35.957201,-79.933211,2012,,CITY OF HIGH POINT (100%);,,N,,562212,,
321,1000366,MEAD VALLEY DISPOSAL SITE LANDFILL,22376 FORREST RD,,PERRIS,CA,CALIFORNIA,92570,06065,RIVERSIDE,33.795197,-117.283368,2012,,COUNTY OF RIVERSIDE (100%);,,N,,562212,,
322,1000367,DOUBLE BUTTE DISPOSAL SITE LANDFILL,31710 GRAND AVE ,,WINCHESTER,CA,CALIFORNIA,92596,06065,RIVERSIDE,33.752909,-116.056224,2012,,COUNTY OF RIVERSIDE (100%);,,N,,562212,,
323,1000368,RIV CO WASTE MGMT (EDOM HILL),70-100 EDOM HILL RD,,THOUSAND PALMS,CA,CALIFORNIA,92276,06065,RIVERSIDE,33.879617,-116.437199,2012,,COUNTY OF RIVERSIDE (100%);,,N,,562212,,
324,1000369,CORONA DISPOSAL SITE,1300 MAGNOLIA AVENUE,,CORONA,CA,CALIFORNIA,92879,06065,RIVERSIDE COUNTY,33.8674,-117.5395,2012,,COUNTY OF RIVERSIDE (100%);,,N,,562212,,
325,1000370,CITY OF GARLAND CASTLE DRIVE LANDFILL,3637 CASTLE DR,,GARLAND,TX,TEXAS,75040,48113,DALLAS,32.933331,-96.583893,2012,,CITY OF GARLAND (100%);,,N,,562212,,
326,1000372,CITY OF DENTON LANDFILL,1527 S MAYHILL RD,,DENTON,TX,TEXAS,76208,48121,DENTON,33.191973,-97.085008,2012,,CITY OF DENTON (100%);,,N,,562212,,
327,1000373,"Ocean Peaking Power, LP",123 ENERGY WAY,,LAKEWOOD,NJ,NEW JERSEY,08701,34029,Ocean,40.0606,-74.1672,2012,Y,"ESSENTIAL POWER, LLC (100%);",,N,,221112,,
328,1000374,MASON CO KY FISCAL COURT,7055 CLARKSON-SHERMAN RD MAYSVILLE,,MAYSVILLE,KY,KENTUCKY,41056,21161,MASON,38.581854,-83.717812,2012,,MASON COUNTY FISCAL COURT (100%);,,N,,562212,,
329,1000375,Welsh Power Plant,FM RD 1735,,PITTSBURG,TX,TEXAS,75686,48449,Titus,33.0583,-94.844,2012,Y,AMERICAN ELECTRIC POWER (100%);,,N,,221112,,
330,1000376,ADM QUINCY,2100 GARDNER EXPRESSWAY,,QUINCY,IL,ILLINOIS,62306,17001,ADAMS,39.90565,-91.41015,2012,,ARCHER DANIELS MIDLAND CO (100%);,,N,,311222,,
331,1000377,International Paper-Courtland Mill,16504 COUNTY ROAD 150,,COURTLAND,AL,ALABAMA,35618,01079,Lawrence,34.735,-87.3108,2012,Y,INTERNATIONAL PAPER CO (100%);,,Y,,322121,322110,
332,1000378,Abbott Laboratories,1250 West Maricopa Highway,,Casa Grande,AZ,ARIZONA,85193,04021,PINAL COUNTY,32.894,-111.78312,2012,,ABBOTT LABORATORIES (100%);,,N,,311514,,
333,1000379,MISSISSIPPI LIME CO - HURON PLANT,100 MEEKER ST,,HURON,OH,OHIO,44839,39043,ERIE,41.3963,-82.5477,2012,,GRAND RIVER ASPHALT (50%);DRUMMOND DOLOMITE (50%);,,N,,327410,,
334,1000380,GM TECHNICAL CENTER,"FACILITIES OPERATIONS BUILDING 6250 CHICAGO ROAD,",,WARREN,MI,MICHIGAN,48090,26099,MACOMB COUNTY,42.52441,-83.0422,2012,,GENERAL MOTORS LLC (100%);,,N,,336211,,
335,1000382,WINNESHIEK COUNTY SANITARY LANDFILL,2000 140TH AVE,,DECORAH,IA,IOWA,52101,19191,WINNESHIEK,43.226364,-91.672622,2012,,WINNESHIEK COUNTY SANITARY LANDFILL (100%);,,N,,562212,,
336,1000383,BIOGEN INC,225 Binney Street,,CAMBRIDGE,MA,MASSACHUSETTS,02142,25017,MIDDLESEX,42.36779,-71.07418,2012,,"BIOGEN IDEC, INC. (100%);",,Y,,325414,541711,
337,1000386,No. 65,100 Cranberry Creek Drive,,Beckley,WV,WEST VIRGINIA,25801,54081,RALEIGH,37.82208,-81.19146,2012,,MECHEL BLUESTONE INC (100%);,,N,,212112,,
338,1000387,PURSUE ENERGY CORPORATION THOMASVILLE GAS PLANT,2173 SHELL OIL ROAD,,BRANDON,MS,MISSISSIPPI,39042,28121,RANKIN COUNTY,32.16025,-89.984528,2012,,PURSUE ENERGY CORPORATION (100%);,,N,,211111,,
339,1000388,Middleborough Gas & Electric Department,32 South Main St.,,Middleborough,MA,MASSACHUSETTS,02346,25023,PLYMOUTH COUNTY,41.89119,-70.91031,2012,,MIDDLEBOROUGH GAS AND  ELECTRIC DEPARTMENT (100%);,,N,,221210,,
340,1000390,Old Ocean Gas Plant,200 Refinery Road,,Sweeny,TX,TEXAS,77208,48039,BRAZORIA,29.047183,-95.747683,2012,N,"ARROWHEAD PIPELINE, LP (100%);",,N,,237120,,
341,1000391,NEW HANOVER COUNTY WASTEC,3002 HIGHWAY 421 NORTH,,WILMINGTON,NC,NORTH CAROLINA,28401,37129,NEW HANOVER,34.281966,-77.95905,2012,,NEW HANOVER COUNTY (100%);,,N,,562213,,
342,1000392,Durafiber Technologies,7401 STATESVILLE BOULEVARD,,SALISBURY,NC,NORTH CAROLINA,28147,37159,ROWAN,35.7133,-80.6122,2012,,PERFORMANCE FIBERS OPERATIONS INC (100%);,,N,,325222,,
343,1000394,CHAPARRAL STEEL,25801 HOFHEIMER WAY,,PETERSBURG,VA,VIRGINIA,23803,51730,PETERSBURG CITY,37.179193,-77.447791,2012,,GERDAU (100%);,,N,,331111,,
344,1000395,J Robert Massengale Generating Station,402 Massengale Drive,,LUBBOCK,TX,TEXAS,79401,48303,Lubbock,33.6039,-101.8408,2012,Y,CITY OF LUBBOCK TEXAS (100%);,,Y,,221112,,
345,1000396,The Ohio State University,1314 KINNEAR ROAD,,COLUMBUS,OH,OHIO,43212,39049,Franklin,40.0008,-83.0158,2012,,THE STATE OF OHIO (100%);,,N,,611310,,
346,1000397,HENRY COUNTY LANDFILL,L-622 ROAD 11,,MALINTA,OH,OHIO,43535,39069,HENRY,41.326698,-84.11145,2012,,HENRY COUNTY COMMISSIONERS (100%);,,N,,562212,,
347,1000398,Hog Bayou Energy Center,1003 PAPER MILL RD,,MOBILE,AL,ALABAMA,36610,01097,Mobile,30.7478,-88.0575,2012,Y,CALPINE CORP (100%);,,N,,221112,,
348,1000399,UNION ELEC HARMON CREEK PLT,31 UNION ELECTRIC STEEL ROAD ROUTE 18 NORTH,,BURGETTSTOWN,PA,PENNSYLVANIA,15021,42125,WASHINGTON COUNTY,40.411247,-80.408185,2012,,AMPCO-PITTSBURGH CORP (100%);,,N,,333516,331112,
349,1000401,Tate & Lyle-Loudon,198 BLAIR BEND DRIVE,,LOUDON,TN,TENNESSEE,37774,47105,Loudon,35.7433,-84.3208,2012,Y,TATE & LYLE INGREDIENTS AMERICAS LLC (100%);,,N,,311221,,
350,1000402,University of Florida Cogeneration Plant,BUILDING 82 MOWRY ROAD,,GAINESVILLE,FL,FLORIDA,32611,12001,Alachua,29.6397,-82.3486,2012,,DUKE ENERGY CORP (100%);,,Y,,221112,,
351,1000403,ROTAN GYPSUM PLANT,832 COUNTY ROAD 311,,ROTAN,TX,TEXAS,79546,48151,FISHER,32.83646,-100.44889,2012,,NEW NGC INC (100%);,,N,,327420,,
352,1000404,Silverhawk,15111 APEX POWER PARKWAY,,LAS VEGAS,NV,NEVADA,89124,32003,Clark,36.4078,-114.9603,2012,,NV ENERGY (75%);SOUTHERN NEVADA WATER AUTHORITY (25%);,,N,,221112,,
353,1000405,WESTERN PLAINS ENERGY LLC,3022 COUNTY ROAD 18,,OAKLEY,KS,KANSAS,67748,20109,LOGAN,39.12461,-100.738037,2012,,"WESTERN PLAINS ENERGY, LLC (100%);",,N,,325193,,
354,1000407,Cargill Corn Milling,2330 BUOY ST,,MEMPHIS,TN,TENNESSEE,38113,47157,Shelby,35.0828,-90.1372,2012,,CARGILL INCORPORATED (100%);,,N,,311221,,
355,1000408,University of Michigan,1239 Kipke Drive,,ANN ARBOR,MI,MICHIGAN,48109,26161,Washtenaw,42.2808,-83.7342,2012,,THE REGENTS OF THE UNIVERSITY OF MICHIGAN (100%);,,Y,,611310,,
356,1000409,"Graphic Packaging International, Inc.",1500 N PITCHER ST,,KALAMAZOO,MI,MICHIGAN,49007,26077,Kalamazoo,42.3049,-85.5783,2012,,"GRAPHIC PACKAGING INTERNATIONAL, INC.  (100%);",,N,,322130,,
357,1000410,Palomar Energy Center,2300 Harveson Place,,ESCONDIDO,CA,CALIFORNIA,92029,06073,San Diego,33.1192,-117.118,2012,Y,SEMPRA ENERGY INC (100%);,,N,,221112,,
358,1000411,Lima Refinery,1150 SOUTH METCALF STREET,,LIMA,OH,OHIO,45804,39003,Allen,40.7234,-84.1133,2012,Y,LIMA REFINING CO (100%);,,N,,324110,,
359,1000412,Rosemary Power Station,120 W 12TH ST,,ROANOKE RAPIDS,NC,NORTH CAROLINA,27870,37083,Halifax,36.4525,-77.6594,2012,,DOMINION RESOURCES INC (100%);,,N,,221112,,
360,1000413,"PACIFIC ETHANOL PEKIN, INC.",1300 SOUTH 2ND STREET,,PEKIN,IL,ILLINOIS,61554,17179,Tazewell,40.555,-89.6628,2012,Y,AVENTINE RENEWABLE ENERGY INC (100%);,,N,,325193,,
361,1000414,Exira Station,3429 JAY AVE,,BRAYTON,IA,IOWA,50042,19009,Audubon,41.5131,-94.9189,2012,Y,WESTERN MINNESOTA MUNICIPAL POWER AGENCY (100%);,,N,,221112,,
362,1000415,"Noble Americas South Bend Ethanol, LLC.",3201 W CALVERT ST,,SOUTH BEND,IN,INDIANA,46613,18141,St. Joseph,41.6552,-86.2962,2012,Y,NEW ENERGY CORP. (100%);,,N,,325193,,
363,1000418,US Steel Corp - Gary Works,1 NORTH BROADWAY,,GARY,IN,INDIANA,46402,18089,Lake,41.6133,-87.3281,2012,,UNITED STATES STEEL CORPORATION (100%);,,Y,,331111,,
364,1000419,C. R. Wing Cogeneration Plant,500 REFINERY ROAD,,BIG SPRING,TX,TEXAS,79720,48227,Howard,32.2722,-101.4222,2012,,BERKSHIRE HATHAWAY (44.93%);GREG ABEL (0.4%);WALTER SCOTT JR. (4.67%);TRANSALTA CORPORATION (50%);,,N,Y,221112,,
365,1000420,Equus Power I,289 BUFFALO AVE,,FREEPORT,NY,NEW YORK,11520,36059,Nassau,40.6447,-73.5683,2012,,J POWER USA DEVELOPMENT CO LTD (100%);,,N,,221112,,
366,1000421,Fox Energy Center,310 East Frontage Road,,Kaukauna,WI,WISCONSIN,54130,55087,Outagamie,44.3204,-88.2089,2012,,GENERAL ELECTRIC CO (GE CO) (100%);,,N,,221112,,
367,1000422,Carson Cogeneration Company,17171 S CENTRAL AVE,,CARSON,CA,CALIFORNIA,90746,06037,Los Angeles,33.8759,-118.2491,2012,,CARSON COGENERATION COMPANY (100%);,,Y,,221112,,
368,1000423,Agua Mansa Power,2040 AGUA MANSA ROAD,,COLTON,CA,CALIFORNIA,92324,06071,San Bernardino,34.0414,-117.3603,2012,,CITY OF COLTON CA (100%);,,N,,221112,,
369,1000424,Blue Lake Generating Plant,1200 70TH ST,,SHAKOPEE,MN,MINNESOTA,55379,27139,Scott,44.7855,-93.4315,2012,,XCEL ENERGY INC (100%);,,N,,221112,,
370,1000425,MERCER COUNTY LANDFILL,749 FRONTAGE ROAD,,PRINCETON,WV,WEST VIRGINIA,24740,54055,MERCER,37.330936,-81.128991,2012,,MERCER COUNTY SOLID WASTE AUTHORITY (100%);,,N,,562212,,
371,1000426,KapStone Charleston Kraft LLC,5600 VIRGINIA AVE,,CHARLESTON,SC,SOUTH CAROLINA,29423,45019,Charleston,32.8994,-79.9694,2012,Y,KAPSTONE PAPER & PACKAGING CORP (100%);,,Y,,322121,,
372,1000427,PAPERWORKS INDUSTRIES INC,455 W. FACTORY ST.,,WABASH,IN,INDIANA,46992,18169,WABASH COUNTY,40.795056,-85.825611,2012,,PAPERWORKS INDUSTRIES INC (100%);,,N,,322130,,
373,1000428,WestRock Northwest LLC - Newberg Mill,1301 WYNOOSKI STREET,,NEWBERG,OR,OREGON,97132,41071,YAMHILL COUNTY,45.29003,-122.96073,2012,,SP FIBER TECHNOLOGIES LLC (100%);,,N,,322122,,
374,1000429,Pennsauken Sanitary Landfill,9600 RIVER ROAD,,PENNSAUKEN,NJ,NEW JERSEY,08110,34007,CAMDEN,39.9889,-75.0417,2012,,POLLUTION CONTROL FINANCING AUTHORITY (100%);,,N,,562212,,
375,1000431,El Segundo,301 VISTA DEL MAR,,EL SEGUNDO,CA,CALIFORNIA,90245,06037,Los Angeles,33.9106,-118.425,2012,,NRG ENERGY INC. (100%);,,N,,221112,,
376,1000432,Independence,76 INDEPENDENCE WAY,,OSWEGO,NY,NEW YORK,13126,36075,Oswego,43.495,-76.4508,2012,,DYNEGY INC (100%);,,N,,221112,,
377,1000433,Island Street Peaking Plant,770 ISLAND ST,,KAUKAUNA,WI,WISCONSIN,54130,55087,Outagamie,44.2761,-88.2656,2012,,WPPI ENERGY (100%);,,N,,221112,,
378,1000434,International Paper - Vicksburg Mill,3737 HIGHWAY 3 NORTH,,REDWOOD,MS,MISSISSIPPI,39156,28149,WARREN,32.52923,-90.774508,2012,,INTERNATIONAL PAPER (100%);,,Y,,322121,322110,
379,1000435,OXY USA Inc South Texas 220 Gulf Coast Basin,401 West Dallas,,McAllen,TX,TEXAS,78501,48215,HIDALGO,26.19857,-98.22361,2012,N,OCCIDENTAL PETROLEUM CORP (100%);,,N,,211111,,
380,1000436,Currant Creek Power Project,2096 WEST 300 NORTH,,MONA,UT,UTAH,84645,49023,Juab,39.8223,-111.894,2012,,BERKSHIRE HATHAWAY (100%);,,N,,221112,,
381,1000437,Mankato Energy Center,1 FAZIO LANE,,MANKATO,MN,MINNESOTA,56001,27013,Blue Earth,44.1965,-94.0099,2012,,CALPINE CORP (100%);,,N,,221112,,
382,1000438,Ripon Generation Station,1015 S STOCKTON BLVD,,RIPON,CA,CALIFORNIA,95366,06099,Stanislaus,37.7315,-121.116,2012,,MODESTO IRRIGATION DISTRICT (100%);,,N,,221112,,
383,1000439,PG&E BURNEY COMPRESSOR STATION,37667 East Highway 299,,Burney,CA,CALIFORNIA,96013,06089,SHASTA,40.884043,-121.658534,2012,,PACIFIC GAS AND ELECTRIC COMPANY (100%);,,N,,221210,,
384,1000440,Malteurop North America Inc,3830 W Grant St,,Milwaukee,WI,WISCONSIN,53215,55079,MILWAUKEE COUNTY,43.00475,-87.96322,2012,,MALTEUROP NORTH AMERICA INC. (100%);,,N,,311213,,
385,1000441,Malteurop North America Inc,2800 Great Bear Avenue,,Great Falls,MT,MONTANA,59404,30013,CASCADE,47.535981,-111.412452,2012,,MALTEUROP NORTH AMERICA INC (100%);,,N,,311213,,
386,1000442,Foster Farms Farmerville Complex,6648 Highway 15 North,,Farmerville,LA,LOUISIANA,71241,22111,UNION PARISH,32.836385,-92.379453,2012,,FOSTER POULTRY FARMS (100%);,"311613,811111",N,,311615,,
387,1000444,Nebo Power Station,1265 Bamberger Road,,PAYSON,UT,UTAH,84651,49049,Utah,40.0614,-111.7294,2012,,UAMPS (100%);,,N,,221112,,
388,1000445,Sheboygan Falls Energy Facility,N5845 BRIDGEWOOD ROAD,,PLYMOUTH,WI,WISCONSIN,53073,55117,Sheboygan,43.7519,-87.8783,2012,,ALLIANT ENERGY CORP (100%);,,N,,221112,,
389,1000446,TS Power Plant,450 TS POWER PLANT ROAD,,BATTLE MOUNTAIN,NV,NEVADA,89820,32011,Eureka,40.7458,-116.5297,2012,Y,NEWMONT USA LTD (100%);,,N,,221112,,
390,1000447,Miramar Energy Facility,6897 CONSOLIDATED WAY,,SAN DIEGO,CA,CALIFORNIA,92121,06073,San Diego,32.8769,-117.1664,2012,Y,SEMPRA ENERGY INC (100%);,,N,,221112,,
391,1000448,Dayton Avenue Substation,2300 PULLMAN ST,,AMES,IA,IOWA,50010,19169,Story,42.0269,-93.5828,2012,,CITY OF AMES (100%);,,N,,221112,,
392,1000449,South Harper Peaking Facility,24400 South Harper Road,,Peculiar,MO,MISSOURI,64078,29037,Cass,38.6803,-94.4824,2012,Y,GREAT PLAINS ENERGY INC (100%);,,N,,221112,,
393,1000450,Caithness Long Island Energy Center,50 ZORN BOULEVARD,,Yaphank,NY,NEW YORK,11719,36103,Suffolk,40.8142,-72.9403,2012,,CAITHNESS LONG ISLAND LLC (100%);,,N,,221112,,
394,1000451,Groton Generating Station,HWY 37,,GROTON,SD,SOUTH DAKOTA,57445,46013,Brown,45.3718,-98.1032,2012,,BASIN ELECTRIC POWER COOPERATIVE (100%);,,N,,221112,,
395,1000452,BP Amoco Chemical Company CR Plant,1306 Amoco Drive,,Wando,SC,SOUTH CAROLINA,29492,45015,Berkeley,32.9701,-79.8905,2012,,BP AMERICA INC (100%);,,N,,325110,,
396,1000453,"Calpine Gilroy Cogen, LP",1400 PACHECO PASS HWY,,GILROY,CA,CALIFORNIA,95020,06085,Santa Clara,37.0001,-121.5367,2012,Y,CALPINE CORP (100%);,,Y,,221112,,
397,1000454,Lake Side Power Plant,1825 NORTH PIONEER LANE,,VINEYARD,UT,UTAH,84058,49049,Utah,40.3311,-111.7547,2012,,BERKSHIRE HATHAWAY (100%);,,N,,221112,,
398,1000455,Port Westward,81566 KALLUNKI RD,,CLATSKANIE,OR,OREGON,97016,41009,Columbia,46.1792,-123.1717,2012,,PORTLAND GENERAL ELECTRIC COMPANY (100%);,,N,,221112,,
399,1000456,Pinelawn Power,380 PATTON AVE,,WEST BABYLON,NY,NEW YORK,11704,36103,Suffolk,40.7358,-73.3881,2012,,J POWER USA DEVELOPMENT CO LTD (100%);,,N,,221112,,
400,1000457,Magnolia,164 WEST MAGNOLIA BOULEVARD,,BURBANK,CA,CALIFORNIA,91502,06037,Los Angeles,34.1788,-118.3153,2012,,SOUTHERN CALIFORNIA PUBLIC POWER AUTHORITY (100%);,,N,,221112,,
401,1000458,"Malaga Power, LLC",2611 E NORTH AVE,,FRESNO,CA,CALIFORNIA,93725,06019,Fresno,36.6894,-119.7399,2012,,KINGS RIVER CONSERVATION DISTRICT (100%);,,N,,926130,,
402,1000459,NCEMC Anson Plant,600 BLEWETT FALLS ROAD,,LILESVILLE,NC,NORTH CAROLINA,28091,37007,Anson,34.9708,-79.9208,2012,,NORTH CAROLINA ELECTRIC MEMBERSHIP CORPORATION (100%);,,N,,221119,,
403,1000460,McIntosh Combined Cycle Facility,900 Old Augusta Road Central,,RINCON,GA,GEORGIA,31326,13103,Effingham,32.3478,-81.1828,2012,,SOUTHERN CO (100%);,,N,,221112,,
404,1000461,Riverbay Corp. - Co-Op City,2049 BARTOW AVENUE,,BRONX,NY,NEW YORK,10475,36005,Bronx,40.8697,-73.8258,2012,,RIVERBAY CORP-CO-OP CITY (100%);,,N,,531110,,
405,1000462,NCEMC Hamlet Plant,162 COOPERATIVE WAY,,HAMLET,NC,NORTH CAROLINA,28345,37153,Richmond,34.8422,-79.7367,2012,,NORTH CAROLINA ELECTRIC MEMBERSHIP CORPORATION (100%);,,N,,221119,,
406,1000463,Bluffview Power Plant,755 MURRAY DRIVE,,FARMINGTON,NM,NEW MEXICO,87401,35045,San Juan,36.7164,-108.2153,2012,,CITY OF FARMINGTON (100%);,,N,,221112,,
407,1000464,Walnut Energy Center,600 S WASHINGTON ROAD,,TURLOCK,CA,CALIFORNIA,95380,06099,Stanislaus,37.4878,-120.8956,2012,,WALNUT ENERGY CENTER AUTHORITY (100%);,,N,,221112,,
408,1000465,Wygen II,20 WYODAK ROAD,,GILLETTE,WY,WYOMING,82718,56005,Campbell,44.2911,-105.3815,2012,Y,BLACK HILLS CORP (100%);,,NA,,221112,,
409,1000466,Archer Daniels Midland Co. - Peoria,FOOT OF EDMUND ST,,PEORIA,IL,ILLINOIS,61602,17143,Peoria,40.6776,-89.6069,2012,Y,ARCHER DANIELS MIDLAND CO (100%);,,Y,,325193,,
410,1000467,Poletti 500 MW CC,31 03 20TH AVE,,ASTORIA,NY,NEW YORK,11105,36081,Queens,40.7881,-73.9056,2012,,NEW YORK POWER AUTHORITY (100%);,,N,,221112,,
411,1000468,Cambridge Station,HIGHWAY 65,,CAMBRIDGE,MN,MINNESOTA,55008,27059,Isanti,45.601,-93.2081,2012,,GREAT RIVER ENERGY (100%);,,N,,221112,,
412,1000469,Inland Empire Energy Center,26226 ANTELOPE RD,,ROMOLAND,CA,CALIFORNIA,92585,06065,Riverside,33.7393,-117.1701,2012,,GENERAL ELECTRIC CO (GE CO) (100%);,,N,,221112,,
413,1000470,"Mustang Station Units 4, 5 & 6",1937 COUNTY ROAD 390,,DENVER CITY,TX,TEXAS,79323,48501,Yoakum,32.9748,-102.7432,2012,,GOLDEN SPREAD ELECTRIC COOPERATIVE (100%);,,N,,221112,,
414,1000471,Riverside Energy Resource Center,5901 PAYTON AVE,,RIVERSIDE,CA,CALIFORNIA,92504,06065,Riverside,33.9636,-117.4528,2012,,CITY OF RIVERSIDE PUBLIC UTILITY (100%);,,N,,221112,,
415,1000472,Paris Energy Center,301 LAKE CROOK ROAD,,PARIS,TX,TEXAS,75460,48277,Lamar,33.6968,-95.5577,2012,,DIRECT ENERGY LP (100%);,,N,,221112,,
416,1000473,DUBUQUE METROPOLITAN SANITARY LANDFILL,14501 HWY 20 W,,DUBUQUE,IA,IOWA,52001,19061,DUBUQUE,42.467498,-90.775634,2012,,DUBUQUE METROPOLITAN AREA SOLID WASTE AGENCY (100%);,,N,,562212,,
417,1000475,Hunterstown Combined Cycle,1890 GRANITE STATION ROAD,,GETTYSBURG,PA,PENNSYLVANIA,17325,42001,Adams,39.8725,-77.1672,2012,Y,NRG ENERGY INC (100%);,,N,,221112,,
418,1000477,BILLINGS CITY LANDFILL,5240 JELLISON ROAD 4 1/2 MI S.,,BILLINGS,MT,MONTANA,59101,30111,YELLOWSTONE,45.7181,-108.55,2012,,"SOLID WASTE DIVISION, CITY OF BILLINGS, MONTANA (100%);",,NA,,562212,,
419,1000478,Sandoval County Landfill,2708 Iris Road NE,,Rio Rancho,NM,NEW MEXICO,87144,35043,SANDOVAL,35.3071,-106.6228,2012,,"SANDOVAL COUNTY, NM (100%);",,N,,562212,,
420,1000480,GALEY & LORD SOCIETY HILL,670 NORTH MAIN STREET,,SOCIETY HILL,SC,SOUTH CAROLINA,29593,45031,DARLINGTON,34.527778,-79.833333,2012,,"GALEY & LORD, LLC (100%);",,N,,313311,,
421,1000481,Quail Run Energy Center,2950 East I 20,,ODESSA,TX,TEXAS,79766,48135,Ector,31.8414,-102.315,2012,,EXELON CORP (100%);,,N,,221112,,
422,1000482,BLACK RIVER GENERATION LLC,4515 Euphrates River Valley Road,,FORT DRUM,NY,NEW YORK,13602,36045,Jefferson,44.0361,-75.7712,2012,Y,REENERGY BLACK RIVER LLC (100%);,,N,,221119,,
423,1000483,Colorado Bend I,3821 S SH 60 HWY,,WHARTON,TX,TEXAS,77488,48481,Wharton,29.2878,-96.0683,2012,,EXELON CORP (100%);,,N,,221112,,
424,1000484,Hunlock Unit 4,390 STATE RTE 11,,HUNLOCK CREEK,PA,PENNSYLVANIA,18621,42079,Luzerne,41.2033,-76.0683,2012,,"FIRSTENERGY GENERATION, LLC (50%);ALLEGHENY ENERGY (50%);",,N,,221112,,
425,1000485,Roseville Energy Park,5120 PHILLIP RD,,ROSEVILLE,CA,CALIFORNIA,95747,06061,Placer,38.7926,-121.3823,2012,,ROSEVILLE ELECTRIC (100%);,,N,,221112,,
426,1000486,Spindle Hill Energy Center,6335 WELD COUNTY RD 19,,Fort Lupton,CO,COLORADO,80621,08123,Weld,40.0914,-104.8819,2012,,"INVENERGY LLC (51%);MARUBENI POWER AMERICA, INC. (C/O CORPORATION TRUST CENTER) (49%);",,N,,221112,,
427,1000487,Harry D. Mattison Power Plant,3046 West Liberty Avenue,,TONTITOWN,AR,ARKANSAS,72762,05143,Washington,36.1855,-94.2841,2012,,AMERICAN ELECTRIC POWER (100%);,,N,,221112,,
428,1000488,Cannon Falls Energy Center,525 N PARK DR,,CANNON FALLS,MN,MINNESOTA,55009,27049,Goodhue,44.5364,-92.9147,2012,,"INVENERGY LLC (51%);MARUBENI POWER AMERICA, INC. (C/O CORPORATION TRUST CENTER) (49%);",,N,,221112,,
429,1000489,Black Mountain Generating Station,6625 S. Yuma Road,,Golden Valley,AZ,ARIZONA,86413,04015,Mohave,35.0361,-114.1594,2012,Y,UNISOURCE ENERGY CORP (100%);,,N,,221112,,
430,1000490,Long Beach Generating Station,2665 SEASIDE BOULEVARD,,LONG BEACH,CA,CALIFORNIA,90802,06037,Los Angeles,33.7641,-118.2248,2012,,NRG ENERGY INC. (100%);,,N,,221112,,
431,1000491,Elm Road Generating Station,10800 S. CHICAGO ROAD,,OAK CREEK,WI,WISCONSIN,53154,55079,Milwaukee,42.8445,-87.829,2012,Y,"W.E. POWER, LLC  (84%);MADISON GAS AND ELECTRIC (8%);WISCONSIN PUBLIC POWER INC. (8%);",,N,,221112,,
432,1000492,Florida Power Development,10311 CEMENT PLANT ROAD,,BROOKSVILLE,FL,FLORIDA,34605,12053,Hernando,28.5814,-82.4303,2012,Y,"FLORIDA POWER DEVELOPMENT (FPD), LLC (100%);",,N,,221112,,
433,1000493,City Water & Light - City of Jonesboro,1400 HANLEY DRIVE,,JONESBORO,AR,ARKANSAS,72403,05031,Craighead,35.8481,-90.7257,2012,,CITY WATER AND LIGHT PLANT OF THE CITY OF JONESBORO (100%);,,N,,221112,,
434,1000496,Cedar Bay Generating Co. LP,9640 EASTPORT ROAD,,JACKSONVILLE,FL,FLORIDA,32218,12031,Duval,30.4219,-81.6079,2012,Y,"CEDAR BAY COGENERATION, INC.  (80%);CEDAR II POWER CORPORATION  (20%);",,Y,,221112,,
435,1000498,Summit Lake,1632 REA RD,,CRESTON,IA,IOWA,50801,19175,Union,41.1141,-94.3499,2012,,CENTRAL IOWA POWER COOPERATIVE (100%);,,N,,221112,,
436,1000499,Sandow Station,,,ROCKDALE,TX,TEXAS,76567,48331,Milam,30.5681,-97.0614,2012,Y,LUMINANT GENERATION COMPANY LLC (100%);,,N,,221112,,
437,1000502,Paducah Power Systems Plant 1,4801 SCHNEIDMAN ROAD,,PADUCAH,KY,KENTUCKY,42003,21145,Mccracken,37.0339,-88.6161,2012,,PADUCAH POWER SYSTEM (100%);,,N,,221112,,
438,1000503,Clear Lake Cogeneration,9602 BAYPORT,,PASADENA,TX,TEXAS,77507,48201,Harris,29.6255,-95.067,2012,,CALPINE CORP (100%);,,Y,,221112,,
439,1000504,Texas City Cogeneration,3221 5TH AVE SOUTH,,TEXAS CITY,TX,TEXAS,77590,48167,Galveston,29.3787,-94.944,2012,,CALPINE CORP (100%);,,Y,,221112,,
440,1000505,"Indiantown Cogeneration, LP",13303 SW SILVER FOX LANE,,INDIANTOWN,FL,FLORIDA,34956,12085,Martin,27.0393,-80.5144,2012,Y,CALYPSO ENERGY HOLDINGS LLC (100%);,,Y,,221112,,
441,1000506,Sargent Canyon Cogeneration Facility,,,San Ardo,CA,CALIFORNIA,93450,06053,Monterey,35.9359,-120.8405,2012,Y,CHEVRON GLOBAL POWER COMPANY (50%);EDISON MISSION ENERGY COMPANY (50%);,,Y,,221112,,
442,1000507,Salinas River Cogeneration Facility,"Star Route 42, Wunpost Road",,SAN ARDO,CA,CALIFORNIA,93450,06053,Monterey,35.9515,-120.8679,2012,Y,EDISON MISSION ENERGY COMPANY (50%);CHEVRON GLOBAL POWER COMPANY (50%);,,Y,,221112,,
443,1000510,Wheaton Generating Plant,3008 80TH ST,,EAU CLAIRE,WI,WISCONSIN,54701,55017,Chippewa,44.8864,-91.5158,2012,,XCEL ENERGY INC (100%);,,N,,221112,,
444,1000513,Nelson Industrial Steam Company,3500 Houston River Road,,Westlake,LA,LOUISIANA,70669,22019,Calcasieu,30.2861,-93.2917,2012,Y,NELSON INDUSTRIAL STEAM CO (100%);,,Y,,221112,,
445,1000515,Grapeland Generating Station,12408 6th St,,Rancho Cucamonga,CA,CALIFORNIA,91739,06071,San Bernardino,34.09,-117.534,2012,,EDISON INTERNATIONAL (100%);,,N,,221112,,
446,1000516,Mira Loma Generating Station,13568 Hamner Ave,,Ontario,CA,CALIFORNIA,91761,06071,San Bernardino,34.0054,-117.5604,2012,,EDISON INTERNATIONAL (100%);,,N,,221112,,
447,1000517,Barre Generating Station,10670 DALE AVE,,STANTON,CA,CALIFORNIA,90680,06059,Orange,33.8073,-117.9833,2012,,EDISON INTERNATIONAL (100%);,,N,,221112,,
448,1000518,Center Generating Station,10639 FIRESTONE BLVD,,NORWALK,CA,CALIFORNIA,90650,06037,Los Angeles,33.9297,-118.1047,2012,,EDISON INTERNATIONAL (100%);,,N,,221112,,
449,1000519,McGrath Generating Station,251 North Harbor Blvd.,,Oxnard,CA,CALIFORNIA,93035,06111,Ventura,34.2054,-119.2478,2012,,EDISON INTERNATIONAL (100%);,,N,,221112,,
450,1000520,Sycamore Combustion Turbine,6141 NW BEAVER DR,,JOHNSTON,IA,IOWA,50323,19153,Polk,41.6722,-93.6769,2012,,"BERKSHIRE HATHAWAY, INC. (100%);",,N,,221112,,
451,1000521,Electrifarm,3233 WEST SHAULIS RD,,WATERLOO,IA,IOWA,50701,19013,Black Hawk,42.4407,-92.4205,2012,,"BERKSHIRE HATHAWAY, INC. (100%);",,N,,221112,,
452,1000522,DOUGLAS COUNTY LANDFILL,126TH AND STATE STREET,,OMAHA,NE,NEBRASKA,68142,31055,DOUGLAS,41.335829,-96.11186,2012,,"DOUGLAS COUNTY, NEBRASKA (100%);",,N,,562212,,
453,1000523,TEAM TEN LLC DBA AMER EAGLE PAPER MILLS,1600 PENNSYLVANIA AVENUE,,TYRONE,PA,PENNSYLVANIA,16686,42013,BLAIR,40.678953,-78.234728,2012,,TEAM TEN LLC (100%);,,N,,322121,,
454,1000528,Wygen III,20 WYODAK ROAD,,GILLETTE,WY,WYOMING,82718,56005,Campbell,44.2892,-105.3795,2012,Y,BLACK HILLS CORP (52%);CONSOLIDATED WY MUNICIPALITIES ELECTRIC POWER SYSTEM JPB (23%);MONTANA DAKOTA UTILITIES CO (25%);,,NA,,221112,,
455,1000529,Houma,1551 BARROW ST,,HOUMA,LA,LOUISIANA,70360,22109,Terrebonne,29.5808,-90.7222,2012,Y,TERREBONNE PARISH CONSOLIDATED GOVERNMENT (100%);,,Y,,221121,,
456,1000530,Hardin County Peaking Facility,7 MI SOUTHEAST OF KOUNTZE,,KOUNTZE,TX,TEXAS,77625,48199,Hardin,30.3039,-94.2527,2012,,"EAST TEXAS ELECTRIC COOPERATIVE, INC (100%);",,N,,221112,,
457,1000531,San Jacinto County Peaking Facility,7.5 MI SOUTH OF SHEPHERD,,SHEPHERD,TX,TEXAS,77371,48407,San Jacinto,30.42,-95.0114,2012,,"EAST TEXAS ELECTRIC COOPERATIVE, INC (100%);",,N,,221112,,
458,1000532,Roy E Hansel Power Plant,102 LAKESHORE BLVD,,KISSIMMEE,FL,FLORIDA,34741,12097,Osceola,28.2908,-81.4069,2012,,FLORIDA MUNICIPAL POWER AGENCY (100%);,,N,,221112,,
459,1000533,SUWANNEE AMERICAN CEMENT,5117  US HIGHWAY 27,,BRANFORD,FL,FLORIDA,32008,12121,SUWANNEE,29.9616,-82.8497,2012,Y,ANDERSON COLUMBIA (50%);VOTORANTIM CIMENTOS NORTH AMERICA (50%);,,N,,327310,,
460,1000534,TES Filer City Station,700 MEE ST,,FILER CITY,MI,MICHIGAN,49634,26101,Manistee,44.217,-86.2906,2012,Y,WESTERN MICHIGAN COGENERATION LP (44%);LOUISIANA IRON WORKS INC. (1%);CMS GENERATION FILER CITY INC. (50%);KCR POWER COMPANY LLC (5%);,,Y,,221112,,
461,1000535,R D Morrow Senior Generating Plant,304 OLD OKAHOLA SCHOOL ROAD,,PURVIS,MS,MISSISSIPPI,39475,28073,Lamar,31.2194,-89.3933,2012,Y,SOUTH MISSISSIPPI ELECTRIC POWER ASSOC (100%);,,N,,221112,,
462,1000536,LA CROSSE COUNTY SOLID WASTE MANAGEMENT FACILITY,6500 STATE RD 16,,LA CROSSE,WI,WISCONSIN,54601,55063,LA CROSSE,43.883285,-91.162154,2012,,"LA CROSSE COUNTY, WISCONSIN (100%);",,N,,562212,,
463,1000538,Waterbury Generation,725 BANK ST,,WATERBURY,CT,CONNECTICUT,06708,09009,New Haven,41.5444,-73.0416,2012,,"IPR-GDF SUEZ NORTH AMERICA, INC (98.00%);AW POWER HOLDINGS, LLC (1.30%);SASCO RIVER ADVISORS, LLC (0.70%);",,N,,221112,,
464,1000539,Plum Point Energy Station,2732A CR 623,,OSCEOLA,AR,ARKANSAS,72370,05093,Mississippi,35.6626,-89.9469,2012,Y,"PLUM POINT ENERGY ASSOCIATES, LLC (56.85%);EAST TEXAS ELECTRIC COOPERATIVE, INC (7.52%);MUNICIPAL ENERGY AGENCY OF MISSISSIPPI (6%);THE EMPIRE DISTRICT ELECTRIC CO (7.52%);MISSOURI JOINT MUNICIPAL ELECTRIC UTILITY COMMISSION (22.11%);",,N,,221112,,
465,1000540,Copper Station,651 HAWKINS BLVD,,EL PASO,TX,TEXAS,79915,48141,El Paso,31.7569,-106.375,2012,,EL PASO ELECTRIC COMPANY (100%);,,N,,221112,,
466,1000541,Niland Gas Turbine Plant,402 EAST BEAL ROAD,,NILAND,CA,CALIFORNIA,92257,06025,Imperial,33.2432,-115.498,2012,,IMPERIAL IRRIGATION DISTRICT (100%);,,N,,221112,,
467,1000542,Winchester Power Park,1260 FM 448,,WINCHESTER,TX,TEXAS,78945,48149,Fayette,30.0253,-96.9945,2012,,LOWER COLORADO RIVER AUTHORITY (100%);,,N,,221112,,
468,1000544,Greenland Energy Center,6850 Energy Center Drive,,Jacksonville,FL,FLORIDA,32256,12031,Duval,30.1603,-81.5164,2012,,JEA (100%);,,N,,221112,,
469,1000545,"Midway Peaking, LLC",43627 WEST PANOCHE ROAD,,FIREBAUGH,CA,CALIFORNIA,93622,06019,Fresno,36.654,-120.5797,2012,,"STARWOOD ENERGY INFRASTRUCTURE FUND LP (58.599%);INDIVIDUAL INVESTORS (JJ FAIR, JIM RICE, RON WATKINS, RICH WEISS) (4.25%);STARWOOD ENERGY INFRASTRUCTURE CO-INVEST FUND LP (37.151%);",,N,,221112,,
470,1000546,Panoche Energy Center,43883 WEST PANOCHE ROAD,,FIRBAUGH,CA,CALIFORNIA,93662,06019,Fresno,36.6513,-120.5833,2012,,"EIF PANOCHE, LLC (100%);",,N,,221112,,
471,1000547,Cedar Bayou 4,7705 WEST BAY ROAD,,ELDON,TX,TEXAS,77523,48071,Chambers,29.752,-94.923,2012,,"NRG ENERGY INC. (50%);OPTIM ENERGY, LLC  C/O COMPETITIVE POWER VENTURES (50%);",,N,,221112,,
472,1000548,Orange Grove Project,35435 Pala Del Norte Rd.,,Pala,CA,CALIFORNIA,92059,06073,San Diego,33.359,-117.111,2012,,J-POWER USA (100%);,,N,,221112,,
473,1000549,North Island,BUILDING 353,,CORONADO,CA,CALIFORNIA,92118,06073,San Diego,32.705,-117.189,2012,,ATLANTIC POWER (US) GP (100%);,,Y,,928110,,
474,1000550,Bear Garden Generating Station,2608 C.G.Woodson Road,,New Canton,VA,VIRGINIA,23123,51029,Buckingham,37.6961,-78.2848,2012,,DOMINION RESOURCES INC (100%);,,N,,221112,,
475,1000551,Auburndale Peaker Energy Center,1651 WEST DERBY AVENUE,,AUBURNDALE,FL,FLORIDA,33823,12105,Polk,28.0534,-81.8059,2012,Y,CALPINE CORPORATION (100%);,,N,,221112,,
476,1000552,Virginia City Hybrid Energy Center,3421 Russell Creek Road,,St. Paul,VA,VIRGINIA,24283,51195,Wise,36.9161,-82.3381,2012,Y,DOMINION RESOURCES INC (100%);,,N,,221112,,
477,1000554,EDGECOMBE COUNTY LANDFILL,2861 COLONIAL ROAD,,TARBORO,NC,NORTH CAROLINA,27886,37065,EDGECOMBE,35.914656,-77.583985,2012,,EDGECOMBE COUNTY SOLID WASTE DEPARTMENT (100%);,,N,,562212,,
478,1000555,Bayonne Energy Center,401 Hook Road,,Bayonne,NJ,NEW JERSEY,07002,34017,Hudson,40.6529,-74.0916,2012,,BAYONNE ENERGY CENTER (100%);,,N,,221112,,
479,1000557,"University of California, San Francisco - Parnassus Campus",25 Medical Center Way,,San Francisco,CA,CALIFORNIA,94143,06075,SAN FRANCISCO,37.762631,-122.456329,2012,,UNIVERSITY OF CALIFORNIA (100%);,,Y,,611310,,
480,1000558,Pueblo Airport Generating Station,400 N 27th Lane,,Pueblo,CO,COLORADO,81001,08101,Pueblo,38.322,-104.533,2012,,BLACK HILLS CORP (100%);,,NA,,221112,,
481,1000559,J.M. Shafer Generating Station,6811 Weld County Road #31,,FORT LUPTON,CO,COLORADO,80621,08123,Weld,40.0979,-104.7745,2012,,TRI-STATE GENERATION & TRANSMISSION (100%);,,Y,,221112,,
482,1000560,El Cajon Energy Center,222 N. Johnson Ave,,El Cajon,CA,CALIFORNIA,92020,06073,San Diego,32.7971,-116.972,2012,Y,"EL CAJON ENERGY, LLC (100%);",,N,,221112,,
483,1000561,Spiritwood Station,3366 93rd Ave SE,,Spiritwood,ND,NORTH DAKOTA,58481,38093,Stutsman,46.925,-98.5,2012,,GREAT RIVER ENERGY (100%);,,N,,221112,,
484,1000562,Dry Fork Station,12460 N. Hwy 59,,Gillette,WY,WYOMING,82716,56005,Campbell,44.3901,-105.4591,2012,Y,WYOMING MUNICIPAL POWER AGENCY (7.1%);BASIN ELECTRIC (92.9%);,,N,,221112,,
485,1000563,Culbertson Station,5419 Road 1016,,Culbertson,MT,MONTANA,59218,30085,Roosevelt,48.2104,-104.3919,2012,,BASIN ELECTRIC POWER COOPERATIVE (100%);,,N,,221112,,
486,1000564,HAMPTON/NASA STEAM PLANT,50 WYTHE CREEK ROAD,,HAMPTON,VA,VIRGINIA,23666,51650,HAMPTON CITY,37.1006,-76.39072,2012,,CITY OF HAMPTON (100%);,,N,,221330,,
487,1000565,Cleveland County Generating Facility,200 Elm Road ,,Grover,NC,NORTH CAROLINA,28073,37045,Cleveland,35.1706,-81.4161,2012,,SOUTHERN COMPANY (100%);,,N,,221112,,
488,1000566,Canyon Power Plant,3071 E. Miraloma Avenue,,"Anaheim, CA",CA,CALIFORNIA,92806,06059,Orange,33.8581,-117.8616,2012,,SOUTHERN CALIFORNIA PUBLIC POWER AUTHORITY (100%);,,N,,221112,,
489,1000567,Ravenswood Steam Plant,38-54 Vernon Blvd,,Long Island City,NY,NEW YORK,11101,36081,Queens,40.76,-73.75,2012,Y,CONSOLIDATED EDISON INC (100%);,,N,,221330,,
490,1000570,O W Sommers,12940 S US Hwy 181,,SAN ANTONIO,TX,TEXAS,78223,48029,Bexar,29.3078,-98.3244,2012,,CPS ENERGY (100%);,,N,,221112,,
491,1000573,BURAS,815 HWY 11 SOUTH,,BURAS,LA,LOUISIANA,70041,22075,PLAQUEMINES,29.36306,-89.53833,2012,,ENTERGY CORP (100%);,,N,,221112,,
492,1000574,MABELVALE,12303 VYME RIDGE ROAD,,MABELVALE,AR,ARKANSAS,72103,05125,SALINE,34.634167,-92.411111,2012,,ENTERGY CORP (100%);,,N,,221112,,
493,1000576,BLACK HILLS POWER AND LIGHT COMPANY,3363 HIGHWAY 16,,OSAGE,WY,WYOMING,82723,56045,WESTON,43.969615,-104.411667,2012,,BLACK HILLS CORP (100%);,,NA,,221112,,
494,1000577,RUPERT COGEN PROJECT,811 SOUTH ONEIDA ST.,,RUPERT,ID,IDAHO,83350,16067,MINIDOKA COUNTY,42.606295,-113.684501,2012,,"EOG RESOURCES, INC (100%);",,NA,,221112,,
495,1000578,GLENNS FERRY COGEN FACILITY,599 EAST HARRISON ST.,,GLENNS FERRY,ID,IDAHO,83623,16039,ELMORE,42.95189,-115.29933,2012,,"EOG RESOURCES, INC (100%);",,NA,,221112,,
496,1000579,"AQUILA, INC. - PUEBLO POWER PLANT",105 S VICTORIA AVE,,PUEBLO,CO,COLORADO,81003,08101,PUEBLO,38.26662,-104.61508,2012,,BLACK HILLS CORP (100%);,,NA,,221112,,
497,1000580,MEDICAL AREA TOTAL ENERGY PLANT,474 BROOKLINE AVE,,BOSTON,MA,MASSACHUSETTS,02215,25025,SUFFOLK,42.336667,-71.108333,2012,,"MAYFLOWER ENERGY PARTNERS, LLC (100%);",,Y,,221330,221112,
498,1000581,"WESTAR ENERGY, INC.",25905 JEFFREY ROAD,,ST. MARYS,KS,KANSAS,66536,20149,Pottawatomie,39.2825,-96.1153,2012,Y,"WESTAR ENERGY, INC. (92%);KANSAS CITY POWER & LIGHT COMPANY - GREATER MISSOURI OPERATIONS COMPANY (8%);",,N,,221112,,
499,1000582,Westar Energy,1250 N 1800 road,,Lawrence,KS,KANSAS,66044,20045,Douglas,39.0072,-95.2692,2012,Y,"WESTAR ENERGY, INC. (100%);",,N,,221112,,
500,1000583,"WESTAR ENERGY, INC.",1685 ROAD 200TH,,EMPORIA,KS,KANSAS,66801,20111,Lyon,38.4464,-96.0651,2012,,"WESTAR ENERGY, INC. (100%);",,N,,221112,,
501,1000584,"WESTAR ENERGY, INC",3200 E 30th,,Hutchinson,KS,KANSAS,67502,20155,Reno,38.0906,-97.8747,2012,,"WESTAR ENERGY, INC. (100%);",,N,,221112,,
502,1000585,"WESTAR ENERGY, INC",6100 W 55th St. South,,Wichita,KS,KANSAS,67215,20173,Sedgwick,37.5956,-97.4131,2012,,"WESTAR ENERGY, INC. (100%);",,N,,221112,,
503,1000586,"WESTAR ENERGY, INC",13200 S Council Rd,,Edmond,OK,OKLAHOMA,73025,40083,Logan,35.7422,-97.655,2012,,"WESTAR ENERGY, INC. (100%);",,N,,221112,,
504,1000588,ArcelorMittal Indiana Harbor LLC,3001 Dickey Road,,East Chicago,IN,INDIANA,46312,18089,LAKE,41.651165,-87.459167,2012,,ARCELORMITTAL USA LLC (100%);,,N,,331111,,
505,1000589,GEORGIA-PACIFIC CONSUMER PRODUCTS LP,1919 S. BROADWAY,,GREEN BAY,WI,WISCONSIN,54304,55009,BROWN,44.4925,-88.0323,2012,Y,KOCH INDUSTRIES INC (100%);,,Y,,322121,322291,
506,1000590,GEORGIA PACIFIC CONSUMER PRODUCTS LP,500 DAY ST,,GREEN BAY,WI,WISCONSIN,54302,55009,BROWN COUNTY,44.52031,-88.0054,2012,,KOCH INDUSTRIES INC (100%);,,N,,322121,322291,
507,1000591,NRG ENERGY CENTER MINNEAPOLIS,816 4TH AVENUE SOUTH,,MINNEAPOLIS,MN,MINNESOTA,55404,27053,HENNEPIN,44.973474,-93.267695,2012,,"NRG ENERGY, INC (100%);",,N,,221112,,
508,1000592,RUBICON LLC - GEISMAR PLANT,9156 HWY. 75,,GEISMAR,LA,LOUISIANA,70734,22005,ASCENSION,30.203024,-91.015172,2012,,RUBICON LLC (100%);,325211,N,,325192,,
509,1000593,VERSO ANDROSCOGGIN LLC,300 RILEY RD,,JAY,ME,MAINE,04239,23007,FRANKLIN,44.5047,-70.2403,2012,,VERSO PAPER CORPORATION (100%);,,N,,322121,322110,
510,1000594,Greenleaf Energy Unit 1 LLC,5087 South Township,,Yuba City,CA,CALIFORNIA,95993,06101,SUTTER,43.0722,-86.2342,2012,Y,CALPINE CORP (100%);,,N,,221112,,
511,1000595,LAS VEGAS GENERATING STATION,1701 ALEXANDER RD,,N LAS VEGAS,NV,NEVADA,89030,32003,CLARK COUNTY,36.23095,-115.12297,2012,,SOUTHWEST GENERATION OPERATING CO (100%);,,N,,221112,,
512,1000596,Greenleaf Energy Unit 2 LLC,875 North Walton Ave,,Yuba City,CA,CALIFORNIA,95993,06101,SUTTER,39.142861,-121.636778,2012,,CALPINE CORP (100%);,,Y,,221112,,
513,1000597,"Calpine King City Cogen, LLC",750 Metz Road,,King City,CA,CALIFORNIA,93930,06053,MONTEREY,36.2257,-121.1279,2012,,CALPINE CORP (100%);,,Y,,221112,,
514,1000598,Neil Simpson,13151 Highway 51,,Gillette,WY,WYOMING,82718,56005,CAMPBELL,44.285366,-105.38249,2012,,BLACK HILLS CORP (100%);,,NA,,221112,,
515,1000600,UNS Gas,"2901 W. Shamrell Blvd., Suite 110",,Flagstaff,AZ,ARIZONA,86001,04005,COCONINO COUNTY,35.13761,-111.6806,2012,,UNISOURCE ENERGY CORP (100%);,,N,,221210,,
516,1000601,EXIDE CORP READING SMELTER DIV,,,READING,PA,PENNSYLVANIA,19605,42011,Berks,40.378296,-75.913897,2012,,EXIDE TECHNOLOGIES (100%);,,N,,331492,,
517,1000602,GRAPHIC PACKAGING INTERNATIONAL INC - WEST MONROE MILL #31,1000 JONESBORO RD HWY 34,,WEST MONROE,LA,LOUISIANA,71292,22073,OUACHITA,32.483198,-92.152243,2012,,GRAPHIC PACKAGING HOLDING COMPANY (100%);,,N,,322130,,
518,1000603,Addis Carbon Black Plant,5221 Sid Richardson Road,,Addis,LA,LOUISIANA,70710,22121,WEST BATON ROUGE,30.3288,-91.2792,2012,,SID RICHARDSON CARBON & ENERGY CO (100%);,,N,,325182,,
519,1000604,Big Spring Carbon Black Plant,1211 North Midway Road,,BIG SPRING,TX,TEXAS,79720,48227,HOWARD COUNTY,32.273133,-101.405326,2012,,SID RICHARDSON CARBON & ENERGY CO (100%);,,N,,325182,,
520,1000605,Borger Carbon Black Plant,9455 FM 1559,,Borger,TX,TEXAS,79007,48233,HUTCHINSON,35.665516,-101.435748,2012,,SID RICHARDSON CARBON & ENERGY CO (100%);,,N,,325182,,
521,1000606,LAMB WESTON INCORPORATED,2975 LAMB WESTON RD.,,AMERICAN FALLS,ID,IDAHO,83211,16077,POWER,42.765556,-112.913333,2012,,CONAGRA FOODS INC (100%);,,N,,311411,,
522,1000607,CONAGRA FOODS LAMB WESTON,811 GUM STREET,,CONNELL,WA,WASHINGTON,99326,53021,FRANKLIN,46.651389,-118.871944,2012,,CONAGRA FOODS INC (100%);,,N,,311411,,
523,1000608,ConAgra Foods Lamb Weston Delhi,77 Hwy 609,,Delhi,LA,LOUISIANA,71232,22083,RICHLAND PARISH,32.458611,-91.574443,2012,,CONAGRA FOODS INC (100%);,,N,,311411,,
524,1000609,LAMB WESTON INC. Hermiston,78153 WESTLAND ROAD,,HERMISTON,OR,OREGON,97838,41059,UMATILLA,45.806906,-119.366219,2012,,CONAGRA FOODS INC (100%);,,N,,311411,,
525,1000610,LAMB WESTON RDO FROZEN,3704 PARK AVENUE SOUTH,,PARK RAPIDS,MN,MINNESOTA,56470,27057,HUBBARD,46.8841,-95.0601,2012,,"LAMB-WESTON/MIDWEST, INC (50%);RDO FROZEN CO (50%);",,N,,311411,,
526,1000611,CONAGRA FOODS LAMB WESTON PASCO,960 GLADE ROAD NORTH,,PASCO,WA,WASHINGTON,99301,53021,FRANKLIN,46.288137,-119.115336,2012,,CONAGRA FOODS INC (100%);,,N,,311411,,
527,1000613,ConAgra Foods Lamb Weston Quincy,1005 E Street SW,,Quincy,WA,WASHINGTON,98848,53025,GRANT,47.234413,-119.869914,2012,,CONAGRA FOODS INC (100%);,,N,,311411,,
528,1000614,CONAGRA FOODS LAMB WESTON RICHLAND,2013 SAINT STREET,,RICHLAND,WA,WASHINGTON,99352,53005,BENTON COUNTY,46.315449,-119.300963,2012,,CONAGRA FOODS INC (100%);,,N,,311411,,
529,1000615,ConAgra Foods Lamb Weston Twin Falls,856 Russet Street,,Twin Falls,ID,IDAHO,83301,16083,TWIN FALLS,42.5524,-114.4827,2012,,CONAGRA FOODS INC (100%);,,N,,311411,,
530,1000618,LUBRIZOL CORPORATION,155 FREEDOM ROAD,,PAINESVILLE,OH,OHIO,44077,39085,LAKE COUNTY,41.720278,-81.273611,2012,,BERKSHIRE HATHAWAY (100%);,,N,,325199,,
531,1000619,LUBRIZOL BAYPORT PLANT,12801 BAY AREA BOULEVARD,,PASADENA,TX,TEXAS,77507,48201,HARRIS COUNTY,29.63993,-95.05196,2012,,BERKSHIRE HATHAWAY (100%);,,N,,325199,,
532,1000620,LUBRIZOL DEER PARK PLANT,41 TIDAL ROAD,,DEER PARK,TX,TEXAS,77536,48201,HARRIS COUNTY,29.71747,-95.11328,2012,,BERKSHIRE HATHAWAY (100%);,,N,,325199,,
533,1000622,"PPG INDUSTRIES FIBER GLASS PRODUCTS, INC.",1497 LANCASTER HIGHWAY,,CHESTER,SC,SOUTH CAROLINA,29706,45023,CHESTER,34.7288,-81.1373,2012,,PPG INDUSTRIES INC (100%);,,N,,327212,,
534,1000623,MONTGOMERY COUNTY RESOURCE RECOVERY FACILITY,21204 MARTINSBURG ROAD,,DICKERSON,MD,MARYLAND,20842,24031,MONTGOMERY,39.200734,-77.456357,2012,Y,NORTHEAST MARYLAND WASTE DISPOSAL AUTHORITY (100%);,,N,,562213,,
535,1000624,WestRock Tacoma Mill,801 PORTLAND AVE.,,TACOMA,WA,WASHINGTON,98421,53053,PIERCE COUNTY,47.261331,-122.421213,2012,,SIMPSON LUMBER COMPANY LLC (100%);,,Y,,322130,,
536,1000625,HONEYWELL INTERNATIONAL INC - BATON ROUGE PLANT,2966 LUPINE AVENUE,,BATON ROUGE,LA,LOUISIANA,70805,22033,EAST BATON ROUGE,30.474444,-91.183056,2012,,"HONEYWELL INTERNATIONAL, INC (100%);",,N,,325120,,
537,1000627,Honeywell International Inc. - Chesterfield Plant,4101 Bermuda Hundred Road,,Chester,VA,VIRGINIA,23836,51041,CHESTERFIELD COUNTY,37.33627,-77.28874,2012,,"HONEYWELL INTERNATIONAL, INC (100%);",,N,,325211,,
538,1000628,HONEYWELL - UOP LLC,1 LINDE DRIVE,,CHICKASAW,AL,ALABAMA,36611,01097,MOBILE COUNTY,30.759387,-88.060027,2012,,"HONEYWELL INTERNATIONAL, INC (100%);",,N,,325188,,
539,1000629,UOP.LLC SHREVEPORT,8725 OLD MOORINGSPORT RD,,SHREVEPORT,LA,LOUISIANA,71120,22017,CADDO,32.61514,-93.92517,2012,,"HONEYWELL INTERNATIONAL, INC (100%);",,N,,325188,,
540,1000630,HONEYWELL INTERNATIONAL INCORPORATED - HOPEWELL,905 EAST RANDOLPH ROAD,,HOPEWELL,VA,VIRGINIA,23860,51670,Hopewell,37.3016,-77.2719,2012,Y,"HONEYWELL INTERNATIONAL, INC (100%);","325311,325120,221330,325188",N,,325199,,
541,1000631,HONEYWELL INTERNATIONAL INC,2768 US HIGHWAY 45 NORTH,,METROPOLIS,IL,ILLINOIS,62960,17127,MASSAC COUNTY,37.171208,-88.75731,2012,,HONEYWELL INTERNATIONAL INC (100%);,,N,,325188,,
542,1000633,ROANOKE CEMENT CO - CLOVERDALE,6071 CATAWBA ROAD,,TROUTVILLE,VA,VIRGINIA,24175,51023,BOTETOURT,37.4604,-79.9948,2012,Y,TITAN AMERICA LLC (100%);,,N,,327310,,
543,1000634,"Ergon Biofuels, LLC",1833 Haining Road,,Vicksburg,MS,MISSISSIPPI,39183,28149,WARREN COUNTY,32.388258,-90.888467,2012,,ERGON INC (50%);BUNGE LTD (50%);,,N,,325193,,
544,1000635,ALCOA INC WENATCHEE WORKS,6200 MALAGA HIGHWAY,,MALAGA,WA,WASHINGTON,98828,53007,CHELAN,47.3567,-120.1273,2012,,ALCOA INC (100%);,,N,,331312,,
545,1000637,Boeing-St. Louis,6200 McDonnell Blvd. (MC - S111-2491),,St. Louis,MO,MISSOURI,63134,29189,SAINT LOUIS,38.741557,-90.341893,2012,,THE BOEING COMPANY (100%);,,N,,336411,,
546,1000638,BOEING HELICOPTER DIV,,,RIDLEY PARK,PA,PENNSYLVANIA,19078,42045,Delaware,39.862773,-75.321425,2012,,BOEING CO (100%);,,N,,336411,,
547,1000639,THE BOEING COMPANY,700 15TH ST SW,,AUBURN,WA,WASHINGTON,98001,53033,KING COUNTY,47.278893,-122.24617,2012,,BOEING CO (100%);,,N,,336413,,
548,1000640,Boeing Commercial Airplanes - Everett,3003 West Casino Rd,,Everett,WA,WASHINGTON,98204,53061,SNOHOMISH COUNTY,47.919437,-122.272815,2012,,THE BOEING COMPANY (100%);,,N,,336411,,
549,1000643,KINGMAN MUNICIPAL POWER PLANT,405 W SHERMAN AVE,,KINGMAN,KS,KANSAS,67068,20095,KINGMAN,37.642012,-98.117502,2012,,"CITY OF KINGMAN, KS (100%);",,N,,221112,,
550,1000644,Perryman,900 CHELSEA ROAD,,PERRYMAN,MD,MARYLAND,21130,24025,Harford,39.4422,-76.2208,2012,,EXELON CORP (100%);,,N,,221112,,
551,1000645,Riverside,SOLLERS POINT RD,,BALTIMORE,MD,MARYLAND,21222,24005,Baltimore,39.2369,-76.5133,2012,,EXELON CORP (100%);,,N,,221112,,
552,1000646,Westport,2810 CLARE ST,,BALTIMORE,MD,MARYLAND,21230,24510,Baltimore,39.2719,-76.6186,2012,,EXELON CORP (100%);,,N,,221112,,
553,1000647,Vienna,CHAPEL OF EASE ROAD,,VIENNA,MD,MARYLAND,21869,24019,Dorchester,38.4878,-75.8208,2012,,"NRG ENERGY, INC (100%);",,N,,221112,,
554,1000648,R. Paul Smith Power Station,15952 LOCKWOOD RD,,WILLIAMSPORT,MD,MARYLAND,21795,24043,Washington,39.595,-77.8269,2012,Y,"FIRSTENERGY GENERATION, LLC (50%);ALLEGHENY ENERGY (50%);",,N,,221112,,
555,1000649,Chalk Point,PO 10,,AQUASCO,MD,MARYLAND,20608,24033,Prince George's,38.5444,-76.6861,2012,Y,NRG ENERGY INC (100%);,,N,,221112,,
556,1000650,Dickerson,21200 MARTINSBURG ROAD,,DICKERSON,MD,MARYLAND,20842,24031,Montgomery,39.2086,-77.4644,2012,Y,NRG ENERGY INC (100%);,,N,,221112,,
557,1000651,Morgantown,12620 CRAIN HIGHWAY,,NEWBURG,MD,MARYLAND,20664,24017,Charles,38.3592,-76.9767,2012,Y,NRG ENERGY INC (100%);,,N,,221112,,
558,1000653,Mystic,173 ALFORD ST,,CHARLESTOWN,MA,MASSACHUSETTS,02129,25017,Middlesex,42.3917,-71.0667,2012,,EXELON CORPORATION  (100%);,,N,,221112,,
559,1000655,Medway Station,9 SUMMER ST,,MEDWAY,MA,MASSACHUSETTS,02053,25021,Norfolk,42.1364,-71.4478,2012,,EXELON CORP (100%);,,N,,221112,,
560,1000656,The President and Fellows of Harvard University (Cambridge Allston Blackstone),46 Blackstone Street,,Cambridge,MA,MASSACHUSETTS,02139,25017,Middlesex,42.3636,-71.1161,2012,,"THE PRESIDENT & FELLOWS OF HARVARD COLLEGE, HARVARD UNIVERSITY (100%);",,Y,,611310,,
561,1000657,Kendall Square,265 FIRST ST,,CAMBRIDGE,MA,MASSACHUSETTS,02142,25017,Middlesex,42.3633,-71.0792,2012,,"GENON ENERGY, INC (100%);",,N,,221112,,
562,1000658,Canal Station,9 FREEZER ROAD,,SANDWICH,MA,MASSACHUSETTS,02563,25001,Barnstable,41.7694,-70.5097,2012,,"GENON ENERGY, INC (100%);",,N,,221112,,
563,1000659,Mount Tom,200 NORTHAMPTON,,HOLYOKE,MA,MASSACHUSETTS,01040,25013,Hampden,42.2814,-72.6053,2012,Y,"IPR-GDF SUEZ NORTH AMERICA, INC. (100%);",,N,,221112,,
564,1000661,Salem Harbor Station,24 FORT AVE,,SALEM,MA,MASSACHUSETTS,01970,25009,Essex,42.5267,-70.8792,2012,Y,FOOTPRINT POWER SALEM HARBOR OPERATIONS LLC (100%);,,N,,221112,,
565,1000663,West Springfield,15 AGAWAM AVE,,WEST SPRINGFIELD,MA,MASSACHUSETTS,01089,25013,Hampden,42.0956,-72.5958,2012,Y,"ESSENTIAL POWER, LLC (100%);",,N,,221112,,
